[
  {
    "name": "Shanghai",
    "location": { "type": "Point", "coordinates": [121.45806, 31.22222] },
    "countryCode": "CN"
  },
  {
    "name": "Beijing",
    "location": { "type": "Point", "coordinates": [116.39723, 39.9075] },
    "countryCode": "CN"
  },
  {
    "name": "Shenzhen",
    "location": { "type": "Point", "coordinates": [114.0683, 22.54554] },
    "countryCode": "CN"
  },
  {
    "name": "Guangzhou",
    "location": { "type": "Point", "coordinates": [113.25, 23.11667] },
    "countryCode": "CN"
  },
  {
    "name": "Lagos",
    "location": { "type": "Point", "coordinates": [3.39467, 6.45407] },
    "countryCode": "NG"
  },
  {
    "name": "Istanbul",
    "location": { "type": "Point", "coordinates": [28.94966, 41.01384] },
    "countryCode": "TR"
  },
  {
    "name": "Chengdu",
    "location": { "type": "Point", "coordinates": [104.06667, 30.66667] },
    "countryCode": "CN"
  },
  {
    "name": "Mumbai",
    "location": { "type": "Point", "coordinates": [72.88261, 19.07283] },
    "countryCode": "IN"
  },
  {
    "name": "Mexico City",
    "location": { "type": "Point", "coordinates": [-99.12766, 19.42847] },
    "countryCode": "MX"
  },
  {
    "name": "Karachi",
    "location": { "type": "Point", "coordinates": [67.0104, 24.8608] },
    "countryCode": "PK"
  },
  {
    "name": "Tianjin",
    "location": { "type": "Point", "coordinates": [117.17667, 39.14222] },
    "countryCode": "CN"
  },
  {
    "name": "Delhi",
    "location": { "type": "Point", "coordinates": [77.23149, 28.65195] },
    "countryCode": "IN"
  },
  {
    "name": "Wuhan",
    "location": { "type": "Point", "coordinates": [114.26667, 30.58333] },
    "countryCode": "CN"
  },
  {
    "name": "Moscow",
    "location": { "type": "Point", "coordinates": [37.61556, 55.75222] },
    "countryCode": "RU"
  },
  {
    "name": "Dhaka",
    "location": { "type": "Point", "coordinates": [90.40744, 23.7104] },
    "countryCode": "BD"
  },
  {
    "name": "Seoul",
    "location": { "type": "Point", "coordinates": [126.9784, 37.566] },
    "countryCode": "KR"
  },
  {
    "name": "São Paulo",
    "location": { "type": "Point", "coordinates": [-46.63611, -23.5475] },
    "countryCode": "BR"
  },
  {
    "name": "Dongguan",
    "location": { "type": "Point", "coordinates": [113.74866, 23.01797] },
    "countryCode": "CN"
  },
  {
    "name": "Cairo",
    "location": { "type": "Point", "coordinates": [31.24967, 30.06263] },
    "countryCode": "EG"
  },
  {
    "name": "Xi’an",
    "location": { "type": "Point", "coordinates": [108.92861, 34.25833] },
    "countryCode": "CN"
  },
  {
    "name": "Nanjing",
    "location": { "type": "Point", "coordinates": [118.77778, 32.06167] },
    "countryCode": "CN"
  },
  {
    "name": "Hangzhou",
    "location": { "type": "Point", "coordinates": [120.16142, 30.29365] },
    "countryCode": "CN"
  },
  {
    "name": "Foshan",
    "location": { "type": "Point", "coordinates": [113.13148, 23.02677] },
    "countryCode": "CN"
  },
  {
    "name": "Ho Chi Minh City",
    "location": { "type": "Point", "coordinates": [106.62965, 10.82302] },
    "countryCode": "VN"
  },
  {
    "name": "London",
    "location": { "type": "Point", "coordinates": [-0.12574, 51.50853] },
    "countryCode": "GB"
  },
  {
    "name": "New York City",
    "location": { "type": "Point", "coordinates": [-74.00597, 40.71427] },
    "countryCode": "US"
  },
  {
    "name": "Jakarta",
    "location": { "type": "Point", "coordinates": [106.84513, -6.21462] },
    "countryCode": "ID"
  },
  {
    "name": "Bengaluru",
    "location": { "type": "Point", "coordinates": [77.59369, 12.97194] },
    "countryCode": "IN"
  },
  {
    "name": "Tokyo",
    "location": { "type": "Point", "coordinates": [139.69171, 35.6895] },
    "countryCode": "JP"
  },
  {
    "name": "Hanoi",
    "location": { "type": "Point", "coordinates": [105.84117, 21.0245] },
    "countryCode": "VN"
  },
  {
    "name": "Taipei",
    "location": { "type": "Point", "coordinates": [121.53185, 25.04776] },
    "countryCode": "TW"
  },
  {
    "name": "Kinshasa",
    "location": { "type": "Point", "coordinates": [15.31357, -4.32758] },
    "countryCode": "CD"
  },
  {
    "name": "Lima",
    "location": { "type": "Point", "coordinates": [-77.02824, -12.04318] },
    "countryCode": "PE"
  },
  {
    "name": "Bogotá",
    "location": { "type": "Point", "coordinates": [-74.08175, 4.60971] },
    "countryCode": "CO"
  },
  {
    "name": "Hong Kong",
    "location": { "type": "Point", "coordinates": [114.17469, 22.27832] },
    "countryCode": "HK"
  },
  {
    "name": "Chongqing",
    "location": { "type": "Point", "coordinates": [106.55771, 29.56026] },
    "countryCode": "CN"
  },
  {
    "name": "Baghdad",
    "location": { "type": "Point", "coordinates": [44.40088, 33.34058] },
    "countryCode": "IQ"
  },
  {
    "name": "Qingdao",
    "location": { "type": "Point", "coordinates": [120.38042, 36.06488] },
    "countryCode": "CN"
  },
  {
    "name": "Tehran",
    "location": { "type": "Point", "coordinates": [51.42151, 35.69439] },
    "countryCode": "IR"
  },
  {
    "name": "Shenyang",
    "location": { "type": "Point", "coordinates": [123.43278, 41.79222] },
    "countryCode": "CN"
  },
  {
    "name": "Hyderābād",
    "location": { "type": "Point", "coordinates": [78.45636, 17.38405] },
    "countryCode": "IN"
  },
  {
    "name": "Suzhou",
    "location": { "type": "Point", "coordinates": [120.59538, 31.30408] },
    "countryCode": "CN"
  },
  {
    "name": "Ahmedabad",
    "location": { "type": "Point", "coordinates": [72.58727, 23.02579] },
    "countryCode": "IN"
  },
  {
    "name": "Abidjan",
    "location": { "type": "Point", "coordinates": [-4.00167, 5.35444] },
    "countryCode": "CI"
  },
  {
    "name": "Lahore",
    "location": { "type": "Point", "coordinates": [74.35071, 31.558] },
    "countryCode": "PK"
  },
  {
    "name": "Rio de Janeiro",
    "location": { "type": "Point", "coordinates": [-43.18223, -22.90642] },
    "countryCode": "BR"
  },
  {
    "name": "Singapore",
    "location": { "type": "Point", "coordinates": [103.85007, 1.28967] },
    "countryCode": "SG"
  },
  {
    "name": "Johannesburg",
    "location": { "type": "Point", "coordinates": [28.04363, -26.20227] },
    "countryCode": "ZA"
  },
  {
    "name": "Saint Petersburg",
    "location": { "type": "Point", "coordinates": [30.31413, 59.93863] },
    "countryCode": "RU"
  },
  {
    "name": "Alexandria",
    "location": { "type": "Point", "coordinates": [29.91582, 31.20176] },
    "countryCode": "EG"
  },
  {
    "name": "Harbin",
    "location": { "type": "Point", "coordinates": [126.65, 45.75] },
    "countryCode": "CN"
  },
  {
    "name": "Bangkok",
    "location": { "type": "Point", "coordinates": [100.50144, 13.75398] },
    "countryCode": "TH"
  },
  {
    "name": "Hefei",
    "location": { "type": "Point", "coordinates": [117.28083, 31.86389] },
    "countryCode": "CN"
  },
  {
    "name": "Dalian",
    "location": { "type": "Point", "coordinates": [121.60222, 38.91222] },
    "countryCode": "CN"
  },
  {
    "name": "Santiago",
    "location": { "type": "Point", "coordinates": [-70.64827, -33.45694] },
    "countryCode": "CL"
  },
  {
    "name": "Changchun",
    "location": { "type": "Point", "coordinates": [125.32278, 43.88] },
    "countryCode": "CN"
  },
  {
    "name": "Cape Town",
    "location": { "type": "Point", "coordinates": [18.42322, -33.92584] },
    "countryCode": "ZA"
  },
  {
    "name": "Jeddah",
    "location": { "type": "Point", "coordinates": [39.18624, 21.49012] },
    "countryCode": "SA"
  },
  {
    "name": "Chennai",
    "location": { "type": "Point", "coordinates": [80.27847, 13.08784] },
    "countryCode": "IN"
  },
  {
    "name": "Kolkata",
    "location": { "type": "Point", "coordinates": [88.36304, 22.56263] },
    "countryCode": "IN"
  },
  {
    "name": "Sydney",
    "location": { "type": "Point", "coordinates": [151.20732, -33.86785] },
    "countryCode": "AU"
  },
  {
    "name": "Xiamen",
    "location": { "type": "Point", "coordinates": [118.08187, 24.47979] },
    "countryCode": "CN"
  },
  {
    "name": "Surat",
    "location": { "type": "Point", "coordinates": [72.83023, 21.19594] },
    "countryCode": "IN"
  },
  {
    "name": "Yangon",
    "location": { "type": "Point", "coordinates": [96.15611, 16.80528] },
    "countryCode": "MM"
  },
  {
    "name": "Kabul",
    "location": { "type": "Point", "coordinates": [69.17233, 34.52813] },
    "countryCode": "AF"
  },
  {
    "name": "Wuxi",
    "location": { "type": "Point", "coordinates": [120.28857, 31.56887] },
    "countryCode": "CN"
  },
  {
    "name": "Giza",
    "location": { "type": "Point", "coordinates": [31.20861, 30.00944] },
    "countryCode": "EG"
  },
  {
    "name": "Jinan",
    "location": { "type": "Point", "coordinates": [116.99722, 36.66833] },
    "countryCode": "CN"
  },
  {
    "name": "Taiyuan",
    "location": { "type": "Point", "coordinates": [112.56028, 37.86944] },
    "countryCode": "CN"
  },
  {
    "name": "Zhengzhou",
    "location": { "type": "Point", "coordinates": [113.64861, 34.75778] },
    "countryCode": "CN"
  },
  {
    "name": "Melbourne",
    "location": { "type": "Point", "coordinates": [144.96332, -37.814] },
    "countryCode": "AU"
  },
  {
    "name": "Riyadh",
    "location": { "type": "Point", "coordinates": [46.72185, 24.68773] },
    "countryCode": "SA"
  },
  {
    "name": "Kano",
    "location": { "type": "Point", "coordinates": [8.51672, 12.00012] },
    "countryCode": "NG"
  },
  {
    "name": "Shijiazhuang",
    "location": { "type": "Point", "coordinates": [114.47861, 38.04139] },
    "countryCode": "CN"
  },
  {
    "name": "Chattogram",
    "location": { "type": "Point", "coordinates": [91.83168, 22.3384] },
    "countryCode": "BD"
  },
  {
    "name": "Los Angeles",
    "location": { "type": "Point", "coordinates": [-118.24368, 34.05223] },
    "countryCode": "US"
  },
  {
    "name": "Kunming",
    "location": { "type": "Point", "coordinates": [102.71833, 25.03889] },
    "countryCode": "CN"
  },
  {
    "name": "Zhongshan",
    "location": { "type": "Point", "coordinates": [113.37912, 22.52306] },
    "countryCode": "CN"
  },
  {
    "name": "Nanning",
    "location": { "type": "Point", "coordinates": [108.31667, 22.81667] },
    "countryCode": "CN"
  },
  {
    "name": "Shantou",
    "location": { "type": "Point", "coordinates": [116.71479, 23.36814] },
    "countryCode": "CN"
  },
  {
    "name": "Yokohama",
    "location": { "type": "Point", "coordinates": [139.65, 35.43333] },
    "countryCode": "JP"
  },
  {
    "name": "Fuzhou",
    "location": { "type": "Point", "coordinates": [119.30611, 26.06139] },
    "countryCode": "CN"
  },
  {
    "name": "Ningbo",
    "location": { "type": "Point", "coordinates": [121.54945, 29.87819] },
    "countryCode": "CN"
  },
  {
    "name": "Busan",
    "location": { "type": "Point", "coordinates": [129.03004, 35.10168] },
    "countryCode": "KR"
  },
  {
    "name": "Ibadan",
    "location": { "type": "Point", "coordinates": [3.90591, 7.37756] },
    "countryCode": "NG"
  },
  {
    "name": "Puyang",
    "location": { "type": "Point", "coordinates": [119.88872, 29.45679] },
    "countryCode": "CN"
  },
  {
    "name": "Ankara",
    "location": { "type": "Point", "coordinates": [32.85427, 39.91987] },
    "countryCode": "TR"
  },
  {
    "name": "Dubai",
    "location": { "type": "Point", "coordinates": [55.30927, 25.07725] },
    "countryCode": "AE"
  },
  {
    "name": "Shiyan",
    "location": { "type": "Point", "coordinates": [110.77806, 32.6475] },
    "countryCode": "CN"
  },
  {
    "name": "Berlin",
    "location": { "type": "Point", "coordinates": [13.41053, 52.52437] },
    "countryCode": "DE"
  },
  {
    "name": "Tangshan",
    "location": { "type": "Point", "coordinates": [118.18333, 39.63333] },
    "countryCode": "CN"
  },
  {
    "name": "Changzhou",
    "location": { "type": "Point", "coordinates": [119.95401, 31.77359] },
    "countryCode": "CN"
  },
  {
    "name": "Madrid",
    "location": { "type": "Point", "coordinates": [-3.70256, 40.4165] },
    "countryCode": "ES"
  },
  {
    "name": "Pyongyang",
    "location": { "type": "Point", "coordinates": [125.75432, 39.03385] },
    "countryCode": "KP"
  },
  {
    "name": "Casablanca",
    "location": { "type": "Point", "coordinates": [-7.61138, 33.58831] },
    "countryCode": "MA"
  },
  {
    "name": "Zibo",
    "location": { "type": "Point", "coordinates": [118.06333, 36.79056] },
    "countryCode": "CN"
  },
  {
    "name": "Pune",
    "location": { "type": "Point", "coordinates": [73.85535, 18.51957] },
    "countryCode": "IN"
  },
  {
    "name": "Durban",
    "location": { "type": "Point", "coordinates": [31.0292, -29.8579] },
    "countryCode": "ZA"
  },
  {
    "name": "Changsha",
    "location": { "type": "Point", "coordinates": [112.97087, 28.19874] },
    "countryCode": "CN"
  },
  {
    "name": "Guiyang",
    "location": { "type": "Point", "coordinates": [106.71667, 26.58333] },
    "countryCode": "CN"
  },
  {
    "name": "Ürümqi",
    "location": { "type": "Point", "coordinates": [87.60046, 43.80096] },
    "countryCode": "CN"
  },
  {
    "name": "Lanzhou",
    "location": { "type": "Point", "coordinates": [103.83987, 36.05701] },
    "countryCode": "CN"
  },
  {
    "name": "Caracas",
    "location": { "type": "Point", "coordinates": [-66.87919, 10.48801] },
    "countryCode": "VE"
  },
  {
    "name": "Incheon",
    "location": { "type": "Point", "coordinates": [126.70515, 37.45646] },
    "countryCode": "KR"
  },
  {
    "name": "Huizhou",
    "location": { "type": "Point", "coordinates": [114.41523, 23.11147] },
    "countryCode": "CN"
  },
  {
    "name": "Buenos Aires",
    "location": { "type": "Point", "coordinates": [-58.37723, -34.61315] },
    "countryCode": "AR"
  },
  {
    "name": "Surabaya",
    "location": { "type": "Point", "coordinates": [112.75083, -7.24917] },
    "countryCode": "ID"
  },
  {
    "name": "Haikou",
    "location": { "type": "Point", "coordinates": [110.34167, 20.04583] },
    "countryCode": "CN"
  },
  {
    "name": "Kanpur",
    "location": { "type": "Point", "coordinates": [80.34975, 26.46523] },
    "countryCode": "IN"
  },
  {
    "name": "Kyiv",
    "location": { "type": "Point", "coordinates": [30.5238, 50.45466] },
    "countryCode": "UA"
  },
  {
    "name": "Quito",
    "location": { "type": "Point", "coordinates": [-78.52495, -0.22985] },
    "countryCode": "EC"
  },
  {
    "name": "Luanda",
    "location": { "type": "Point", "coordinates": [13.23432, -8.83682] },
    "countryCode": "AO"
  },
  {
    "name": "Quezon City",
    "location": { "type": "Point", "coordinates": [121.0509, 14.6488] },
    "countryCode": "PH"
  },
  {
    "name": "Addis Ababa",
    "location": { "type": "Point", "coordinates": [38.74689, 9.02497] },
    "countryCode": "ET"
  },
  {
    "name": "Osaka",
    "location": { "type": "Point", "coordinates": [135.50218, 34.69374] },
    "countryCode": "JP"
  },
  {
    "name": "Nairobi",
    "location": { "type": "Point", "coordinates": [36.81667, -1.28333] },
    "countryCode": "KE"
  },
  {
    "name": "Chicago",
    "location": { "type": "Point", "coordinates": [-87.65005, 41.85003] },
    "countryCode": "US"
  },
  {
    "name": "Linyi",
    "location": { "type": "Point", "coordinates": [118.34278, 35.06306] },
    "countryCode": "CN"
  },
  {
    "name": "Baoding",
    "location": { "type": "Point", "coordinates": [115.49028, 38.85111] },
    "countryCode": "CN"
  },
  {
    "name": "Brooklyn",
    "location": { "type": "Point", "coordinates": [-73.94958, 40.6501] },
    "countryCode": "US"
  },
  {
    "name": "Guayaquil",
    "location": { "type": "Point", "coordinates": [-79.88621, -2.19616] },
    "countryCode": "EC"
  },
  {
    "name": "Salvador",
    "location": { "type": "Point", "coordinates": [-38.49096, -12.97563] },
    "countryCode": "BR"
  },
  {
    "name": "Jaipur",
    "location": { "type": "Point", "coordinates": [75.78781, 26.91962] },
    "countryCode": "IN"
  },
  {
    "name": "Dar es Salaam",
    "location": { "type": "Point", "coordinates": [39.26951, -6.82349] },
    "countryCode": "TZ"
  },
  {
    "name": "Wenzhou",
    "location": { "type": "Point", "coordinates": [120.66682, 27.99942] },
    "countryCode": "CN"
  },
  {
    "name": "Yunfu",
    "location": { "type": "Point", "coordinates": [112.03809, 22.92787] },
    "countryCode": "CN"
  },
  {
    "name": "Toronto",
    "location": { "type": "Point", "coordinates": [-79.4163, 43.70011] },
    "countryCode": "CA"
  },
  {
    "name": "Navi Mumbai",
    "location": { "type": "Point", "coordinates": [73.01582, 19.03681] },
    "countryCode": "IN"
  },
  {
    "name": "Mogadishu",
    "location": { "type": "Point", "coordinates": [45.34375, 2.03711] },
    "countryCode": "SO"
  },
  {
    "name": "Daegu",
    "location": { "type": "Point", "coordinates": [128.59111, 35.87028] },
    "countryCode": "KR"
  },
  {
    "name": "Bekasi",
    "location": { "type": "Point", "coordinates": [106.9896, -6.2349] },
    "countryCode": "ID"
  },
  {
    "name": "Faisalabad",
    "location": { "type": "Point", "coordinates": [73.08969, 31.41554] },
    "countryCode": "PK"
  },
  {
    "name": "İzmir",
    "location": { "type": "Point", "coordinates": [27.13838, 38.41273] },
    "countryCode": "TR"
  },
  {
    "name": "Huai'an",
    "location": { "type": "Point", "coordinates": [119.01917, 33.58861] },
    "countryCode": "CN"
  },
  {
    "name": "Dakar",
    "location": { "type": "Point", "coordinates": [-17.44406, 14.6937] },
    "countryCode": "SN"
  },
  {
    "name": "Lucknow",
    "location": { "type": "Point", "coordinates": [80.92313, 26.83928] },
    "countryCode": "IN"
  },
  {
    "name": "Bandung",
    "location": { "type": "Point", "coordinates": [107.60694, -6.92222] },
    "countryCode": "ID"
  },
  {
    "name": "Medan",
    "location": { "type": "Point", "coordinates": [98.66667, 3.58333] },
    "countryCode": "ID"
  },
  {
    "name": "Fortaleza",
    "location": { "type": "Point", "coordinates": [-38.54306, -3.71722] },
    "countryCode": "BR"
  },
  {
    "name": "Cali",
    "location": { "type": "Point", "coordinates": [-76.5225, 3.43722] },
    "countryCode": "CO"
  },
  {
    "name": "Belo Horizonte",
    "location": { "type": "Point", "coordinates": [-43.93778, -19.92083] },
    "countryCode": "BR"
  },
  {
    "name": "Nanchang",
    "location": { "type": "Point", "coordinates": [115.85306, 28.68396] },
    "countryCode": "CN"
  },
  {
    "name": "Hohhot",
    "location": { "type": "Point", "coordinates": [111.65222, 40.81056] },
    "countryCode": "CN"
  },
  {
    "name": "Rome",
    "location": { "type": "Point", "coordinates": [12.51133, 41.89193] },
    "countryCode": "IT"
  },
  {
    "name": "Mashhad",
    "location": { "type": "Point", "coordinates": [59.60567, 36.29807] },
    "countryCode": "IR"
  },
  {
    "name": "Houston",
    "location": { "type": "Point", "coordinates": [-95.36327, 29.76328] },
    "countryCode": "US"
  },
  {
    "name": "Kowloon",
    "location": { "type": "Point", "coordinates": [114.18333, 22.31667] },
    "countryCode": "HK"
  },
  {
    "name": "Shaoxing",
    "location": { "type": "Point", "coordinates": [120.57864, 30.00237] },
    "countryCode": "CN"
  },
  {
    "name": "Nantong",
    "location": { "type": "Point", "coordinates": [120.87472, 32.03028] },
    "countryCode": "CN"
  },
  {
    "name": "Queens",
    "location": { "type": "Point", "coordinates": [-73.83652, 40.68149] },
    "countryCode": "US"
  },
  {
    "name": "Nagpur",
    "location": { "type": "Point", "coordinates": [79.08491, 21.14631] },
    "countryCode": "IN"
  },
  {
    "name": "Yantai",
    "location": { "type": "Point", "coordinates": [121.44081, 37.47649] },
    "countryCode": "CN"
  },
  {
    "name": "Maracaibo",
    "location": { "type": "Point", "coordinates": [-71.61245, 10.66663] },
    "countryCode": "VE"
  },
  {
    "name": "Brasília",
    "location": { "type": "Point", "coordinates": [-47.92972, -15.77972] },
    "countryCode": "BR"
  },
  {
    "name": "Zhuhai",
    "location": { "type": "Point", "coordinates": [113.56778, 22.27694] },
    "countryCode": "CN"
  },
  {
    "name": "Santo Domingo",
    "location": { "type": "Point", "coordinates": [-69.89232, 18.47186] },
    "countryCode": "DO"
  },
  {
    "name": "Nagoya",
    "location": { "type": "Point", "coordinates": [136.90641, 35.18147] },
    "countryCode": "JP"
  },
  {
    "name": "Brisbane",
    "location": { "type": "Point", "coordinates": [153.02809, -27.46794] },
    "countryCode": "AU"
  },
  {
    "name": "Havana",
    "location": { "type": "Point", "coordinates": [-82.38304, 23.13302] },
    "countryCode": "CU"
  },
  {
    "name": "Baotou",
    "location": { "type": "Point", "coordinates": [109.84389, 40.6516] },
    "countryCode": "CN"
  },
  {
    "name": "Paris",
    "location": { "type": "Point", "coordinates": [2.3488, 48.85341] },
    "countryCode": "FR"
  },
  {
    "name": "Coimbatore",
    "location": { "type": "Point", "coordinates": [76.96612, 11.00555] },
    "countryCode": "IN"
  },
  {
    "name": "Kunshan",
    "location": { "type": "Point", "coordinates": [120.95431, 31.37762] },
    "countryCode": "CN"
  },
  {
    "name": "Al Mawşil al Jadīdah",
    "location": { "type": "Point", "coordinates": [43.10555, 36.33271] },
    "countryCode": "IQ"
  },
  {
    "name": "Depok",
    "location": { "type": "Point", "coordinates": [106.81861, -6.4] },
    "countryCode": "ID"
  },
  {
    "name": "Weifang",
    "location": { "type": "Point", "coordinates": [119.10194, 36.71] },
    "countryCode": "CN"
  },
  {
    "name": "Zunyi",
    "location": { "type": "Point", "coordinates": [106.90722, 27.68667] },
    "countryCode": "CN"
  },
  {
    "name": "Al Başrah al Qadīmah",
    "location": { "type": "Point", "coordinates": [47.81507, 30.50316] },
    "countryCode": "IQ"
  },
  {
    "name": "La Paz",
    "location": { "type": "Point", "coordinates": [-68.15, -16.5] },
    "countryCode": "BO"
  },
  {
    "name": "Lianyungang",
    "location": { "type": "Point", "coordinates": [119.21556, 34.59845] },
    "countryCode": "CN"
  },
  {
    "name": "Medellín",
    "location": { "type": "Point", "coordinates": [-75.56359, 6.25184] },
    "countryCode": "CO"
  },
  {
    "name": "Tashkent",
    "location": { "type": "Point", "coordinates": [69.21627, 41.26465] },
    "countryCode": "UZ"
  },
  {
    "name": "Algiers",
    "location": { "type": "Point", "coordinates": [3.08746, 36.73225] },
    "countryCode": "DZ"
  },
  {
    "name": "Ganzhou",
    "location": { "type": "Point", "coordinates": [114.9326, 25.84664] },
    "countryCode": "CN"
  },
  {
    "name": "Almaty",
    "location": { "type": "Point", "coordinates": [76.91667, 43.25] },
    "countryCode": "KZ"
  },
  {
    "name": "Khartoum",
    "location": { "type": "Point", "coordinates": [32.53241, 15.55177] },
    "countryCode": "SD"
  },
  {
    "name": "Sapporo",
    "location": { "type": "Point", "coordinates": [141.35, 43.06667] },
    "countryCode": "JP"
  },
  {
    "name": "Accra",
    "location": { "type": "Point", "coordinates": [-0.1969, 5.55602] },
    "countryCode": "GH"
  },
  {
    "name": "Ordos",
    "location": { "type": "Point", "coordinates": [109.78157, 39.6086] },
    "countryCode": "CN"
  },
  {
    "name": "Sanaa",
    "location": { "type": "Point", "coordinates": [44.20667, 15.35472] },
    "countryCode": "YE"
  },
  {
    "name": "Tijuana",
    "location": { "type": "Point", "coordinates": [-117.00371, 32.5027] },
    "countryCode": "MX"
  },
  {
    "name": "Beirut",
    "location": { "type": "Point", "coordinates": [35.50157, 33.89332] },
    "countryCode": "LB"
  },
  {
    "name": "Tangerang",
    "location": { "type": "Point", "coordinates": [106.63, -6.17806] },
    "countryCode": "ID"
  },
  {
    "name": "Jieyang",
    "location": { "type": "Point", "coordinates": [116.36581, 23.5418] },
    "countryCode": "CN"
  },
  {
    "name": "Perth",
    "location": { "type": "Point", "coordinates": [115.8614, -31.95224] },
    "countryCode": "AU"
  },
  {
    "name": "Jilin",
    "location": { "type": "Point", "coordinates": [126.56028, 43.85083] },
    "countryCode": "CN"
  },
  {
    "name": "Bucharest",
    "location": { "type": "Point", "coordinates": [26.10626, 44.43225] },
    "countryCode": "RO"
  },
  {
    "name": "Camayenne",
    "location": { "type": "Point", "coordinates": [-13.68778, 9.535] },
    "countryCode": "GN"
  },
  {
    "name": "Kakamega",
    "location": { "type": "Point", "coordinates": [34.75229, 0.28422] },
    "countryCode": "KE"
  },
  {
    "name": "Port Harcourt",
    "location": { "type": "Point", "coordinates": [7.0134, 4.77742] },
    "countryCode": "NG"
  },
  {
    "name": "Nanchong",
    "location": { "type": "Point", "coordinates": [106.08473, 30.79508] },
    "countryCode": "CN"
  },
  {
    "name": "Datong",
    "location": { "type": "Point", "coordinates": [113.29139, 40.09361] },
    "countryCode": "CN"
  },
  {
    "name": "Hamburg",
    "location": { "type": "Point", "coordinates": [9.99302, 53.55073] },
    "countryCode": "DE"
  },
  {
    "name": "Indore",
    "location": { "type": "Point", "coordinates": [75.8333, 22.71792] },
    "countryCode": "IN"
  },
  {
    "name": "Santa Cruz de la Sierra",
    "location": { "type": "Point", "coordinates": [-63.18117, -17.78629] },
    "countryCode": "BO"
  },
  {
    "name": "Vadodara",
    "location": { "type": "Point", "coordinates": [73.20812, 22.29941] },
    "countryCode": "IN"
  },
  {
    "name": "Iztapalapa",
    "location": { "type": "Point", "coordinates": [-99.06224, 19.35529] },
    "countryCode": "MX"
  },
  {
    "name": "Nanyang",
    "location": { "type": "Point", "coordinates": [112.53278, 32.99472] },
    "countryCode": "CN"
  },
  {
    "name": "Jiangmen",
    "location": { "type": "Point", "coordinates": [113.08333, 22.58333] },
    "countryCode": "CN"
  },
  {
    "name": "Benin City",
    "location": { "type": "Point", "coordinates": [5.62575, 6.33815] },
    "countryCode": "NG"
  },
  {
    "name": "Jiangyin",
    "location": { "type": "Point", "coordinates": [120.26302, 31.91102] },
    "countryCode": "CN"
  },
  {
    "name": "Davao",
    "location": { "type": "Point", "coordinates": [125.61278, 7.07306] },
    "countryCode": "PH"
  },
  {
    "name": "Fuyang",
    "location": { "type": "Point", "coordinates": [115.81667, 32.9] },
    "countryCode": "CN"
  },
  {
    "name": "Conakry",
    "location": { "type": "Point", "coordinates": [-13.67729, 9.53795] },
    "countryCode": "GN"
  },
  {
    "name": "Montréal",
    "location": { "type": "Point", "coordinates": [-73.58781, 45.50884] },
    "countryCode": "CA"
  },
  {
    "name": "Bayan Nur",
    "location": { "type": "Point", "coordinates": [107.38599, 40.74143] },
    "countryCode": "CN"
  },
  {
    "name": "Maracay",
    "location": { "type": "Point", "coordinates": [-67.59113, 10.23535] },
    "countryCode": "VE"
  },
  {
    "name": "Chaozhou",
    "location": { "type": "Point", "coordinates": [116.62262, 23.65396] },
    "countryCode": "CN"
  },
  {
    "name": "Rawalpindi",
    "location": { "type": "Point", "coordinates": [73.0479, 33.59733] },
    "countryCode": "PK"
  },
  {
    "name": "Minsk",
    "location": { "type": "Point", "coordinates": [27.56667, 53.9] },
    "countryCode": "BY"
  },
  {
    "name": "Budapest",
    "location": { "type": "Point", "coordinates": [19.04045, 47.49835] },
    "countryCode": "HU"
  },
  {
    "name": "Qingyuan",
    "location": { "type": "Point", "coordinates": [113.03333, 23.7] },
    "countryCode": "CN"
  },
  {
    "name": "Tai’an",
    "location": { "type": "Point", "coordinates": [117.12, 36.18528] },
    "countryCode": "CN"
  },
  {
    "name": "León de los Aldama",
    "location": { "type": "Point", "coordinates": [-101.67374, 21.12908] },
    "countryCode": "MX"
  },
  {
    "name": "Curitiba",
    "location": { "type": "Point", "coordinates": [-49.27306, -25.42778] },
    "countryCode": "BR"
  },
  {
    "name": "Warsaw",
    "location": { "type": "Point", "coordinates": [21.01178, 52.22977] },
    "countryCode": "PL"
  },
  {
    "name": "Soweto",
    "location": { "type": "Point", "coordinates": [27.85849, -26.26781] },
    "countryCode": "ZA"
  },
  {
    "name": "Puebla",
    "location": { "type": "Point", "coordinates": [-98.20346, 19.03793] },
    "countryCode": "MX"
  },
  {
    "name": "Vienna",
    "location": { "type": "Point", "coordinates": [16.37208, 48.20849] },
    "countryCode": "AT"
  },
  {
    "name": "Mosul",
    "location": { "type": "Point", "coordinates": [43.11889, 36.335] },
    "countryCode": "IQ"
  },
  {
    "name": "Kallakurichi",
    "location": { "type": "Point", "coordinates": [78.95925, 11.73379] },
    "countryCode": "IN"
  },
  {
    "name": "Xining",
    "location": { "type": "Point", "coordinates": [101.75739, 36.62554] },
    "countryCode": "CN"
  },
  {
    "name": "Changshu",
    "location": { "type": "Point", "coordinates": [120.74221, 31.64615] },
    "countryCode": "CN"
  },
  {
    "name": "Palembang",
    "location": { "type": "Point", "coordinates": [104.7458, -2.91673] },
    "countryCode": "ID"
  },
  {
    "name": "Huainan",
    "location": { "type": "Point", "coordinates": [116.99694, 32.62639] },
    "countryCode": "CN"
  },
  {
    "name": "Rabat",
    "location": { "type": "Point", "coordinates": [-6.83255, 34.01325] },
    "countryCode": "MA"
  },
  {
    "name": "Semarang",
    "location": { "type": "Point", "coordinates": [110.42083, -6.99306] },
    "countryCode": "ID"
  },
  {
    "name": "Suzhou",
    "location": { "type": "Point", "coordinates": [116.97889, 33.63611] },
    "countryCode": "CN"
  },
  {
    "name": "Ecatepec de Morelos",
    "location": { "type": "Point", "coordinates": [-99.06064, 19.60492] },
    "countryCode": "MX"
  },
  {
    "name": "Lu’an",
    "location": { "type": "Point", "coordinates": [116.51688, 31.73561] },
    "countryCode": "CN"
  },
  {
    "name": "Barcelona",
    "location": { "type": "Point", "coordinates": [2.15899, 41.38879] },
    "countryCode": "ES"
  },
  {
    "name": "Valencia",
    "location": { "type": "Point", "coordinates": [-68.00765, 10.16202] },
    "countryCode": "VE"
  },
  {
    "name": "Pretoria",
    "location": { "type": "Point", "coordinates": [28.18783, -25.74486] },
    "countryCode": "ZA"
  },
  {
    "name": "Yancheng",
    "location": { "type": "Point", "coordinates": [120.1573, 33.3575] },
    "countryCode": "CN"
  },
  {
    "name": "Novosibirsk",
    "location": { "type": "Point", "coordinates": [82.9346, 55.0415] },
    "countryCode": "RU"
  },
  {
    "name": "Erbil",
    "location": { "type": "Point", "coordinates": [44.01193, 36.18333] },
    "countryCode": "IQ"
  },
  {
    "name": "Phoenix",
    "location": { "type": "Point", "coordinates": [-112.07404, 33.44838] },
    "countryCode": "US"
  },
  {
    "name": "Taizhou",
    "location": { "type": "Point", "coordinates": [119.90812, 32.49069] },
    "countryCode": "CN"
  },
  {
    "name": "Daqing",
    "location": { "type": "Point", "coordinates": [125, 46.58333] },
    "countryCode": "CN"
  },
  {
    "name": "Philadelphia",
    "location": { "type": "Point", "coordinates": [-75.16362, 39.95238] },
    "countryCode": "US"
  },
  {
    "name": "Fukuoka",
    "location": { "type": "Point", "coordinates": [130.41667, 33.6] },
    "countryCode": "JP"
  },
  {
    "name": "Aleppo",
    "location": { "type": "Point", "coordinates": [37.16117, 36.20124] },
    "countryCode": "SY"
  },
  {
    "name": "Manila",
    "location": { "type": "Point", "coordinates": [120.9822, 14.6042] },
    "countryCode": "PH"
  },
  {
    "name": "Patna",
    "location": { "type": "Point", "coordinates": [85.13563, 25.59408] },
    "countryCode": "IN"
  },
  {
    "name": "Bhopāl",
    "location": { "type": "Point", "coordinates": [77.40289, 23.25469] },
    "countryCode": "IN"
  },
  {
    "name": "Manaus",
    "location": { "type": "Point", "coordinates": [-60.025, -3.10194] },
    "countryCode": "BR"
  },
  {
    "name": "Wuhu",
    "location": { "type": "Point", "coordinates": [118.37351, 31.33728] },
    "countryCode": "CN"
  },
  {
    "name": "Santiago de Querétaro",
    "location": { "type": "Point", "coordinates": [-100.38806, 20.58806] },
    "countryCode": "MX"
  },
  {
    "name": "Dazhou",
    "location": { "type": "Point", "coordinates": [107.46308, 31.2106] },
    "countryCode": "CN"
  },
  {
    "name": "Yangzhou",
    "location": { "type": "Point", "coordinates": [119.43583, 32.39722] },
    "countryCode": "CN"
  },
  {
    "name": "Kaduna",
    "location": { "type": "Point", "coordinates": [7.43879, 10.52641] },
    "countryCode": "NG"
  },
  {
    "name": "Mecca",
    "location": { "type": "Point", "coordinates": [39.82563, 21.42664] },
    "countryCode": "SA"
  },
  {
    "name": "Phnom Penh",
    "location": { "type": "Point", "coordinates": [104.91601, 11.56245] },
    "countryCode": "KH"
  },
  {
    "name": "Guilin",
    "location": { "type": "Point", "coordinates": [110.29639, 25.28022] },
    "countryCode": "CN"
  },
  {
    "name": "Damascus",
    "location": { "type": "Point", "coordinates": [36.29128, 33.5102] },
    "countryCode": "SY"
  },
  {
    "name": "Zhaoqing",
    "location": { "type": "Point", "coordinates": [112.46091, 23.04893] },
    "countryCode": "CN"
  },
  {
    "name": "Onitsha",
    "location": { "type": "Point", "coordinates": [6.78569, 6.14978] },
    "countryCode": "NG"
  },
  {
    "name": "Mianyang",
    "location": { "type": "Point", "coordinates": [104.68168, 31.46784] },
    "countryCode": "CN"
  },
  {
    "name": "Isfahan",
    "location": { "type": "Point", "coordinates": [51.67462, 32.65246] },
    "countryCode": "IR"
  },
  {
    "name": "Ludhiāna",
    "location": { "type": "Point", "coordinates": [75.85379, 30.91204] },
    "countryCode": "IN"
  },
  {
    "name": "Harare",
    "location": { "type": "Point", "coordinates": [31.05337, -17.82772] },
    "countryCode": "ZW"
  },
  {
    "name": "Putian",
    "location": { "type": "Point", "coordinates": [119.01028, 25.43944] },
    "countryCode": "CN"
  },
  {
    "name": "Shangqiu",
    "location": { "type": "Point", "coordinates": [115.65, 34.45] },
    "countryCode": "CN"
  },
  {
    "name": "Kawasaki",
    "location": { "type": "Point", "coordinates": [139.71722, 35.52056] },
    "countryCode": "JP"
  },
  {
    "name": "Kobe",
    "location": { "type": "Point", "coordinates": [135.183, 34.6913] },
    "countryCode": "JP"
  },
  {
    "name": "Kaohsiung",
    "location": { "type": "Point", "coordinates": [120.31333, 22.61626] },
    "countryCode": "TW"
  },
  {
    "name": "Stockholm",
    "location": { "type": "Point", "coordinates": [18.06871, 59.32938] },
    "countryCode": "SE"
  },
  {
    "name": "Ciudad Juárez",
    "location": { "type": "Point", "coordinates": [-106.46084, 31.72024] },
    "countryCode": "MX"
  },
  {
    "name": "Caloocan City",
    "location": { "type": "Point", "coordinates": [120.96788, 14.64953] },
    "countryCode": "PH"
  },
  {
    "name": "Yekaterinburg",
    "location": { "type": "Point", "coordinates": [60.6122, 56.8519] },
    "countryCode": "RU"
  },
  {
    "name": "Gwangju",
    "location": { "type": "Point", "coordinates": [126.91556, 35.15472] },
    "countryCode": "KR"
  },
  {
    "name": "Yinchuan",
    "location": { "type": "Point", "coordinates": [106.27306, 38.46806] },
    "countryCode": "CN"
  },
  {
    "name": "Manhattan",
    "location": { "type": "Point", "coordinates": [-73.96625, 40.78343] },
    "countryCode": "US"
  },
  {
    "name": "Taizhou",
    "location": { "type": "Point", "coordinates": [121.43312, 28.66266] },
    "countryCode": "CN"
  },
  {
    "name": "Asunción",
    "location": { "type": "Point", "coordinates": [-57.647, -25.28646] },
    "countryCode": "PY"
  },
  {
    "name": "Yiwu",
    "location": { "type": "Point", "coordinates": [120.07676, 29.31506] },
    "countryCode": "CN"
  },
  {
    "name": "Recife",
    "location": { "type": "Point", "coordinates": [-34.88111, -8.05389] },
    "countryCode": "BR"
  },
  {
    "name": "Zapopan",
    "location": { "type": "Point", "coordinates": [-103.38479, 20.72356] },
    "countryCode": "MX"
  },
  {
    "name": "Daejeon",
    "location": { "type": "Point", "coordinates": [127.38493, 36.34913] },
    "countryCode": "KR"
  },
  {
    "name": "Quanzhou",
    "location": { "type": "Point", "coordinates": [118.58583, 24.91389] },
    "countryCode": "CN"
  },
  {
    "name": "Kumasi",
    "location": { "type": "Point", "coordinates": [-1.62443, 6.68848] },
    "countryCode": "GH"
  },
  {
    "name": "Madurai",
    "location": { "type": "Point", "coordinates": [78.11953, 9.919] },
    "countryCode": "IN"
  },
  {
    "name": "Jinhua",
    "location": { "type": "Point", "coordinates": [119.64421, 29.10678] },
    "countryCode": "CN"
  },
  {
    "name": "Kyoto",
    "location": { "type": "Point", "coordinates": [135.75385, 35.02107] },
    "countryCode": "JP"
  },
  {
    "name": "Cixi",
    "location": { "type": "Point", "coordinates": [121.2457, 30.1764] },
    "countryCode": "CN"
  },
  {
    "name": "Changde",
    "location": { "type": "Point", "coordinates": [111.69844, 29.03205] },
    "countryCode": "CN"
  },
  {
    "name": "Kuala Lumpur",
    "location": { "type": "Point", "coordinates": [101.68653, 3.1412] },
    "countryCode": "MY"
  },
  {
    "name": "Kaifeng",
    "location": { "type": "Point", "coordinates": [114.30742, 34.7986] },
    "countryCode": "CN"
  },
  {
    "name": "Anshan",
    "location": { "type": "Point", "coordinates": [122.99, 41.12361] },
    "countryCode": "CN"
  },
  {
    "name": "Karaj",
    "location": { "type": "Point", "coordinates": [50.99155, 35.83266] },
    "countryCode": "IR"
  },
  {
    "name": "Kathmandu",
    "location": { "type": "Point", "coordinates": [85.3206, 27.70169] },
    "countryCode": "NP"
  },
  {
    "name": "Baoji",
    "location": { "type": "Point", "coordinates": [107.23705, 34.36775] },
    "countryCode": "CN"
  },
  {
    "name": "Suqian",
    "location": { "type": "Point", "coordinates": [118.29583, 33.94917] },
    "countryCode": "CN"
  },
  {
    "name": "Multan",
    "location": { "type": "Point", "coordinates": [71.47824, 30.19679] },
    "countryCode": "PK"
  },
  {
    "name": "Liuzhou",
    "location": { "type": "Point", "coordinates": [109.40698, 24.32405] },
    "countryCode": "CN"
  },
  {
    "name": "Tirunelveli",
    "location": { "type": "Point", "coordinates": [77.6838, 8.72742] },
    "countryCode": "IN"
  },
  {
    "name": "San Antonio",
    "location": { "type": "Point", "coordinates": [-98.49363, 29.42412] },
    "countryCode": "US"
  },
  {
    "name": "Kharkiv",
    "location": { "type": "Point", "coordinates": [36.25272, 49.98081] },
    "countryCode": "UA"
  },
  {
    "name": "Zhangjiagang",
    "location": { "type": "Point", "coordinates": [120.53889, 31.865] },
    "countryCode": "CN"
  },
  {
    "name": "Agra",
    "location": { "type": "Point", "coordinates": [78.01667, 27.18333] },
    "countryCode": "IN"
  },
  {
    "name": "Tabriz",
    "location": { "type": "Point", "coordinates": [46.2919, 38.08] },
    "countryCode": "IR"
  },
  {
    "name": "Makassar",
    "location": { "type": "Point", "coordinates": [119.43194, -5.14861] },
    "countryCode": "ID"
  },
  {
    "name": "Jinjiang",
    "location": { "type": "Point", "coordinates": [118.57415, 24.81978] },
    "countryCode": "CN"
  },
  {
    "name": "Bursa",
    "location": { "type": "Point", "coordinates": [29.06013, 40.19559] },
    "countryCode": "TR"
  },
  {
    "name": "Bozhou",
    "location": { "type": "Point", "coordinates": [115.77028, 33.87722] },
    "countryCode": "CN"
  },
  {
    "name": "Qujing",
    "location": { "type": "Point", "coordinates": [103.78333, 25.48333] },
    "countryCode": "CN"
  },
  {
    "name": "Belém",
    "location": { "type": "Point", "coordinates": [-48.50444, -1.45583] },
    "countryCode": "BR"
  },
  {
    "name": "Zhanjiang",
    "location": { "type": "Point", "coordinates": [110.38749, 21.23391] },
    "countryCode": "CN"
  },
  {
    "name": "Fushun",
    "location": { "type": "Point", "coordinates": [123.94363, 41.88669] },
    "countryCode": "CN"
  },
  {
    "name": "San Diego",
    "location": { "type": "Point", "coordinates": [-117.16472, 32.71571] },
    "countryCode": "US"
  },
  {
    "name": "Antananarivo",
    "location": { "type": "Point", "coordinates": [47.53613, -18.91368] },
    "countryCode": "MG"
  },
  {
    "name": "Rājkot",
    "location": { "type": "Point", "coordinates": [70.79322, 22.29161] },
    "countryCode": "IN"
  },
  {
    "name": "Luoyang",
    "location": { "type": "Point", "coordinates": [112.45361, 34.68361] },
    "countryCode": "CN"
  },
  {
    "name": "Hyderabad",
    "location": { "type": "Point", "coordinates": [68.37366, 25.39242] },
    "countryCode": "PK"
  },
  {
    "name": "Guadalajara",
    "location": { "type": "Point", "coordinates": [-103.39182, 20.66682] },
    "countryCode": "MX"
  },
  {
    "name": "The Bronx",
    "location": { "type": "Point", "coordinates": [-73.86641, 40.84985] },
    "countryCode": "US"
  },
  {
    "name": "Gujranwala",
    "location": { "type": "Point", "coordinates": [74.18705, 32.15567] },
    "countryCode": "PK"
  },
  {
    "name": "Guankou",
    "location": { "type": "Point", "coordinates": [113.62709, 28.15861] },
    "countryCode": "CN"
  },
  {
    "name": "Lubumbashi",
    "location": { "type": "Point", "coordinates": [27.47938, -11.66089] },
    "countryCode": "CD"
  },
  {
    "name": "Porto Alegre",
    "location": { "type": "Point", "coordinates": [-51.23019, -30.03283] },
    "countryCode": "BR"
  },
  {
    "name": "Milan",
    "location": { "type": "Point", "coordinates": [9.18951, 45.46427] },
    "countryCode": "IT"
  },
  {
    "name": "South Tangerang",
    "location": { "type": "Point", "coordinates": [106.71789, -6.28862] },
    "countryCode": "ID"
  },
  {
    "name": "Najafgarh",
    "location": { "type": "Point", "coordinates": [76.97982, 28.60922] },
    "countryCode": "IN"
  },
  {
    "name": "Handan",
    "location": { "type": "Point", "coordinates": [114.48764, 36.60999] },
    "countryCode": "CN"
  },
  {
    "name": "Kampala",
    "location": { "type": "Point", "coordinates": [32.58219, 0.31628] },
    "countryCode": "UG"
  },
  {
    "name": "Yichang",
    "location": { "type": "Point", "coordinates": [111.28472, 30.71444] },
    "countryCode": "CN"
  },
  {
    "name": "Heze",
    "location": { "type": "Point", "coordinates": [115.47358, 35.23929] },
    "countryCode": "CN"
  },
  {
    "name": "Khulna",
    "location": { "type": "Point", "coordinates": [89.56439, 22.80979] },
    "countryCode": "BD"
  },
  {
    "name": "Abobo",
    "location": { "type": "Point", "coordinates": [-4.0159, 5.41613] },
    "countryCode": "CI"
  },
  {
    "name": "Jamshedpur",
    "location": { "type": "Point", "coordinates": [86.18545, 22.80278] },
    "countryCode": "IN"
  },
  {
    "name": "Douala",
    "location": { "type": "Point", "coordinates": [9.70428, 4.04827] },
    "countryCode": "CM"
  },
  {
    "name": "Basrah",
    "location": { "type": "Point", "coordinates": [47.7804, 30.50852] },
    "countryCode": "IQ"
  },
  {
    "name": "Saitama",
    "location": { "type": "Point", "coordinates": [139.65657, 35.90807] },
    "countryCode": "JP"
  },
  {
    "name": "Gorakhpur",
    "location": { "type": "Point", "coordinates": [75.67206, 29.44768] },
    "countryCode": "IN"
  },
  {
    "name": "Sharjah",
    "location": { "type": "Point", "coordinates": [55.41206, 25.33737] },
    "countryCode": "AE"
  },
  {
    "name": "Liupanshui",
    "location": { "type": "Point", "coordinates": [104.83333, 26.59444] },
    "countryCode": "CN"
  },
  {
    "name": "Córdoba",
    "location": { "type": "Point", "coordinates": [-64.18105, -31.4135] },
    "countryCode": "AR"
  },
  {
    "name": "Maoming",
    "location": { "type": "Point", "coordinates": [110.91364, 21.66625] },
    "countryCode": "CN"
  },
  {
    "name": "Dallas",
    "location": { "type": "Point", "coordinates": [-96.80667, 32.78306] },
    "countryCode": "US"
  },
  {
    "name": "Callao",
    "location": { "type": "Point", "coordinates": [-77.11814, -12.05659] },
    "countryCode": "PE"
  },
  {
    "name": "Medina",
    "location": { "type": "Point", "coordinates": [39.61417, 24.46861] },
    "countryCode": "SA"
  },
  {
    "name": "Yaoundé",
    "location": { "type": "Point", "coordinates": [11.51667, 3.86667] },
    "countryCode": "CM"
  },
  {
    "name": "Bamako",
    "location": { "type": "Point", "coordinates": [-8, 12.65] },
    "countryCode": "ML"
  },
  {
    "name": "Qinzhou",
    "location": { "type": "Point", "coordinates": [108.65061, 21.98247] },
    "countryCode": "CN"
  },
  {
    "name": "Luohe",
    "location": { "type": "Point", "coordinates": [114.04272, 33.56394] },
    "countryCode": "CN"
  },
  {
    "name": "Xiangyang",
    "location": { "type": "Point", "coordinates": [112.14479, 32.0422] },
    "countryCode": "CN"
  },
  {
    "name": "Yangjiang",
    "location": { "type": "Point", "coordinates": [111.96272, 21.85563] },
    "countryCode": "CN"
  },
  {
    "name": "Nashik",
    "location": { "type": "Point", "coordinates": [73.79096, 19.99727] },
    "countryCode": "IN"
  },
  {
    "name": "Yixing",
    "location": { "type": "Point", "coordinates": [119.82016, 31.36059] },
    "countryCode": "CN"
  },
  {
    "name": "Brazzaville",
    "location": { "type": "Point", "coordinates": [15.28318, -4.26613] },
    "countryCode": "CG"
  },
  {
    "name": "Pimpri",
    "location": { "type": "Point", "coordinates": [73.80696, 18.62292] },
    "countryCode": "IN"
  },
  {
    "name": "Amman",
    "location": { "type": "Point", "coordinates": [35.94503, 31.95522] },
    "countryCode": "JO"
  },
  {
    "name": "Budta",
    "location": { "type": "Point", "coordinates": [124.43972, 7.20417] },
    "countryCode": "PH"
  },
  {
    "name": "Belgrade",
    "location": { "type": "Point", "coordinates": [20.46513, 44.80401] },
    "countryCode": "RS"
  },
  {
    "name": "Montevideo",
    "location": { "type": "Point", "coordinates": [-56.18816, -34.90328] },
    "countryCode": "UY"
  },
  {
    "name": "Lusaka",
    "location": { "type": "Point", "coordinates": [28.28713, -15.40669] },
    "countryCode": "ZM"
  },
  {
    "name": "Xuchang",
    "location": { "type": "Point", "coordinates": [113.86299, 34.03189] },
    "countryCode": "CN"
  },
  {
    "name": "Kalyān",
    "location": { "type": "Point", "coordinates": [73.13554, 19.2437] },
    "countryCode": "IN"
  },
  {
    "name": "Zigong",
    "location": { "type": "Point", "coordinates": [104.77689, 29.34162] },
    "countryCode": "CN"
  },
  {
    "name": "Thāne",
    "location": { "type": "Point", "coordinates": [72.96355, 19.19704] },
    "countryCode": "IN"
  },
  {
    "name": "Munich",
    "location": { "type": "Point", "coordinates": [11.57549, 48.13743] },
    "countryCode": "DE"
  },
  {
    "name": "Nizhniy Novgorod",
    "location": { "type": "Point", "coordinates": [44.00205, 56.32867] },
    "countryCode": "RU"
  },
  {
    "name": "Jepara",
    "location": { "type": "Point", "coordinates": [110.671, -6.5924] },
    "countryCode": "ID"
  },
  {
    "name": "Xuzhou",
    "location": { "type": "Point", "coordinates": [117.28386, 34.20442] },
    "countryCode": "CN"
  },
  {
    "name": "Dammam",
    "location": { "type": "Point", "coordinates": [50.10326, 26.43442] },
    "countryCode": "SA"
  },
  {
    "name": "Ra’s Bayrūt",
    "location": { "type": "Point", "coordinates": [35.48333, 33.9] },
    "countryCode": "LB"
  },
  {
    "name": "Neijiang",
    "location": { "type": "Point", "coordinates": [105.06216, 29.58354] },
    "countryCode": "CN"
  },
  {
    "name": "Shiraz",
    "location": { "type": "Point", "coordinates": [52.53113, 29.61031] },
    "countryCode": "IR"
  },
  {
    "name": "Yiyang",
    "location": { "type": "Point", "coordinates": [112.32833, 28.58917] },
    "countryCode": "CN"
  },
  {
    "name": "Adana",
    "location": { "type": "Point", "coordinates": [35.32531, 36.98615] },
    "countryCode": "TR"
  },
  {
    "name": "Kazan",
    "location": { "type": "Point", "coordinates": [49.12214, 55.78874] },
    "countryCode": "RU"
  },
  {
    "name": "Suwon",
    "location": { "type": "Point", "coordinates": [127.00889, 37.29111] },
    "countryCode": "KR"
  },
  {
    "name": "Jining",
    "location": { "type": "Point", "coordinates": [116.58139, 35.405] },
    "countryCode": "CN"
  },
  {
    "name": "Shubrā al Khaymah",
    "location": { "type": "Point", "coordinates": [31.25053, 30.12511] },
    "countryCode": "EG"
  },
  {
    "name": "Abuja",
    "location": { "type": "Point", "coordinates": [7.49508, 9.05785] },
    "countryCode": "NG"
  },
  {
    "name": "Port-au-Prince",
    "location": { "type": "Point", "coordinates": [-72.33881, 18.54349] },
    "countryCode": "HT"
  },
  {
    "name": "Xinyang",
    "location": { "type": "Point", "coordinates": [114.06556, 32.12278] },
    "countryCode": "CN"
  },
  {
    "name": "Liaocheng",
    "location": { "type": "Point", "coordinates": [116.00247, 36.45064] },
    "countryCode": "CN"
  },
  {
    "name": "Jinzhong",
    "location": { "type": "Point", "coordinates": [112.75471, 37.68403] },
    "countryCode": "CN"
  },
  {
    "name": "Adelaide",
    "location": { "type": "Point", "coordinates": [138.59863, -34.92866] },
    "countryCode": "AU"
  },
  {
    "name": "Meerut",
    "location": { "type": "Point", "coordinates": [77.70636, 28.98002] },
    "countryCode": "IN"
  },
  {
    "name": "Nowrangapur",
    "location": { "type": "Point", "coordinates": [82.54826, 19.23114] },
    "countryCode": "IN"
  },
  {
    "name": "Faridabad",
    "location": { "type": "Point", "coordinates": [77.31316, 28.41124] },
    "countryCode": "IN"
  },
  {
    "name": "Peshawar",
    "location": { "type": "Point", "coordinates": [71.57849, 34.008] },
    "countryCode": "PK"
  },
  {
    "name": "Karbala",
    "location": { "type": "Point", "coordinates": [44.02488, 32.61603] },
    "countryCode": "IQ"
  },
  {
    "name": "Changzhi",
    "location": { "type": "Point", "coordinates": [113.10528, 36.18389] },
    "countryCode": "CN"
  },
  {
    "name": "Tianshui",
    "location": { "type": "Point", "coordinates": [105.74238, 34.57952] },
    "countryCode": "CN"
  },
  {
    "name": "Mombasa",
    "location": { "type": "Point", "coordinates": [39.66359, -4.05466] },
    "countryCode": "KE"
  },
  {
    "name": "Mandalay",
    "location": { "type": "Point", "coordinates": [96.08359, 21.97473] },
    "countryCode": "MM"
  },
  {
    "name": "Barranquilla",
    "location": { "type": "Point", "coordinates": [-74.78132, 10.96854] },
    "countryCode": "CO"
  },
  {
    "name": "Chelyabinsk",
    "location": { "type": "Point", "coordinates": [61.42915, 55.15402] },
    "countryCode": "RU"
  },
  {
    "name": "Mérida",
    "location": { "type": "Point", "coordinates": [-89.61696, 20.97537] },
    "countryCode": "MX"
  },
  {
    "name": "Santiago de los Caballeros",
    "location": { "type": "Point", "coordinates": [-70.69703, 19.4517] },
    "countryCode": "DO"
  },
  {
    "name": "Shymkent",
    "location": { "type": "Point", "coordinates": [69.6, 42.3] },
    "countryCode": "KZ"
  },
  {
    "name": "Omdurman",
    "location": { "type": "Point", "coordinates": [32.47773, 15.64453] },
    "countryCode": "SD"
  },
  {
    "name": "Hiroshima",
    "location": { "type": "Point", "coordinates": [132.45, 34.4] },
    "countryCode": "JP"
  },
  {
    "name": "Weinan",
    "location": { "type": "Point", "coordinates": [109.50891, 34.50355] },
    "countryCode": "CN"
  },
  {
    "name": "Ghāziābād",
    "location": { "type": "Point", "coordinates": [77.43915, 28.66535] },
    "countryCode": "IN"
  },
  {
    "name": "Dhanbad",
    "location": { "type": "Point", "coordinates": [86.42992, 23.79759] },
    "countryCode": "IN"
  },
  {
    "name": "Dombivli",
    "location": { "type": "Point", "coordinates": [73.08333, 19.21667] },
    "countryCode": "IN"
  },
  {
    "name": "Maputo",
    "location": { "type": "Point", "coordinates": [32.58322, -25.96553] },
    "countryCode": "MZ"
  },
  {
    "name": "Gustavo Adolfo Madero",
    "location": { "type": "Point", "coordinates": [-99.11075, 19.49392] },
    "countryCode": "MX"
  },
  {
    "name": "Jiaxing",
    "location": { "type": "Point", "coordinates": [120.75, 30.7522] },
    "countryCode": "CN"
  },
  {
    "name": "Omsk",
    "location": { "type": "Point", "coordinates": [73.36859, 54.99244] },
    "countryCode": "RU"
  },
  {
    "name": "Goiânia",
    "location": { "type": "Point", "coordinates": [-49.25389, -16.67861] },
    "countryCode": "BR"
  },
  {
    "name": "Guarulhos",
    "location": { "type": "Point", "coordinates": [-46.53333, -23.46278] },
    "countryCode": "BR"
  },
  {
    "name": "Bandar Lampung",
    "location": { "type": "Point", "coordinates": [105.26111, -5.42917] },
    "countryCode": "ID"
  },
  {
    "name": "Prague",
    "location": { "type": "Point", "coordinates": [14.42076, 50.08804] },
    "countryCode": "CZ"
  },
  {
    "name": "Varanasi",
    "location": { "type": "Point", "coordinates": [83.01041, 25.31668] },
    "countryCode": "IN"
  },
  {
    "name": "Batam",
    "location": { "type": "Point", "coordinates": [104.02491, 1.14937] },
    "countryCode": "ID"
  },
  {
    "name": "Jiujiang",
    "location": { "type": "Point", "coordinates": [116.00206, 29.70475] },
    "countryCode": "CN"
  },
  {
    "name": "Samara",
    "location": { "type": "Point", "coordinates": [50.15, 53.20007] },
    "countryCode": "RU"
  },
  {
    "name": "Copenhagen",
    "location": { "type": "Point", "coordinates": [12.56553, 55.67594] },
    "countryCode": "DK"
  },
  {
    "name": "Sofia",
    "location": { "type": "Point", "coordinates": [23.32415, 42.69751] },
    "countryCode": "BG"
  },
  {
    "name": "Tripoli",
    "location": { "type": "Point", "coordinates": [13.18733, 32.88743] },
    "countryCode": "LY"
  },
  {
    "name": "Anyang",
    "location": { "type": "Point", "coordinates": [114.38278, 36.096] },
    "countryCode": "CN"
  },
  {
    "name": "Birmingham",
    "location": { "type": "Point", "coordinates": [-1.89983, 52.48142] },
    "countryCode": "GB"
  },
  {
    "name": "Bijie",
    "location": { "type": "Point", "coordinates": [105.28627, 27.30193] },
    "countryCode": "CN"
  },
  {
    "name": "Monterrey",
    "location": { "type": "Point", "coordinates": [-100.31847, 25.67507] },
    "countryCode": "MX"
  },
  {
    "name": "Kigali",
    "location": { "type": "Point", "coordinates": [30.05885, -1.94995] },
    "countryCode": "RW"
  },
  {
    "name": "Rostov-na-Donu",
    "location": { "type": "Point", "coordinates": [39.72328, 47.23135] },
    "countryCode": "RU"
  },
  {
    "name": "Zhuzhou",
    "location": { "type": "Point", "coordinates": [113.15, 27.83333] },
    "countryCode": "CN"
  },
  {
    "name": "Malingao",
    "location": { "type": "Point", "coordinates": [124.475, 7.16083] },
    "countryCode": "PH"
  },
  {
    "name": "Ufa",
    "location": { "type": "Point", "coordinates": [55.96779, 54.74306] },
    "countryCode": "RU"
  },
  {
    "name": "Ranchi",
    "location": { "type": "Point", "coordinates": [85.3094, 23.34316] },
    "countryCode": "IN"
  },
  {
    "name": "Baku",
    "location": { "type": "Point", "coordinates": [49.89201, 40.37767] },
    "countryCode": "AZ"
  },
  {
    "name": "Shangrao",
    "location": { "type": "Point", "coordinates": [117.94287, 28.45179] },
    "countryCode": "CN"
  },
  {
    "name": "Barquisimeto",
    "location": { "type": "Point", "coordinates": [-69.35703, 10.0647] },
    "countryCode": "VE"
  },
  {
    "name": "Huaibei",
    "location": { "type": "Point", "coordinates": [116.79167, 33.97444] },
    "countryCode": "CN"
  },
  {
    "name": "Meishan",
    "location": { "type": "Point", "coordinates": [103.83696, 30.04392] },
    "countryCode": "CN"
  },
  {
    "name": "Ciudad Nezahualcoyotl",
    "location": { "type": "Point", "coordinates": [-99.01483, 19.40061] },
    "countryCode": "MX"
  },
  {
    "name": "Bogor",
    "location": { "type": "Point", "coordinates": [106.78917, -6.59444] },
    "countryCode": "ID"
  },
  {
    "name": "Sendai",
    "location": { "type": "Point", "coordinates": [140.86667, 38.26667] },
    "countryCode": "JP"
  },
  {
    "name": "Yerevan",
    "location": { "type": "Point", "coordinates": [44.51361, 40.18111] },
    "countryCode": "AM"
  },
  {
    "name": "Amritsar",
    "location": { "type": "Point", "coordinates": [74.87534, 31.62234] },
    "countryCode": "IN"
  },
  {
    "name": "Krasnoyarsk",
    "location": { "type": "Point", "coordinates": [92.86717, 56.01839] },
    "countryCode": "RU"
  },
  {
    "name": "Fuzhou",
    "location": { "type": "Point", "coordinates": [116.33333, 27.95999] },
    "countryCode": "CN"
  },
  {
    "name": "Ouagadougou",
    "location": { "type": "Point", "coordinates": [-1.53388, 12.36566] },
    "countryCode": "BF"
  },
  {
    "name": "Guigang",
    "location": { "type": "Point", "coordinates": [109.59472, 23.11603] },
    "countryCode": "CN"
  },
  {
    "name": "Pekanbaru",
    "location": { "type": "Point", "coordinates": [101.44167, 0.51667] },
    "countryCode": "ID"
  },
  {
    "name": "Hengyang",
    "location": { "type": "Point", "coordinates": [112.61888, 26.88946] },
    "countryCode": "CN"
  },
  {
    "name": "Allahābād",
    "location": { "type": "Point", "coordinates": [81.84322, 25.44478] },
    "countryCode": "IN"
  },
  {
    "name": "Goyang-si",
    "location": { "type": "Point", "coordinates": [126.835, 37.65639] },
    "countryCode": "KR"
  },
  {
    "name": "Gaziantep",
    "location": { "type": "Point", "coordinates": [37.3825, 37.05944] },
    "countryCode": "TR"
  },
  {
    "name": "Visakhapatnam",
    "location": { "type": "Point", "coordinates": [83.20161, 17.68009] },
    "countryCode": "IN"
  },
  {
    "name": "Yulin",
    "location": { "type": "Point", "coordinates": [110.14686, 22.6305] },
    "countryCode": "CN"
  },
  {
    "name": "Jingzhou",
    "location": { "type": "Point", "coordinates": [112.19028, 30.35028] },
    "countryCode": "CN"
  },
  {
    "name": "Tbilisi",
    "location": { "type": "Point", "coordinates": [44.83368, 41.69411] },
    "countryCode": "GE"
  },
  {
    "name": "Voronezh",
    "location": { "type": "Point", "coordinates": [39.1843, 51.67204] },
    "countryCode": "RU"
  },
  {
    "name": "Xinxiang",
    "location": { "type": "Point", "coordinates": [113.80151, 35.19033] },
    "countryCode": "CN"
  },
  {
    "name": "Yichun",
    "location": { "type": "Point", "coordinates": [114.4, 27.83333] },
    "countryCode": "CN"
  },
  {
    "name": "Taichung",
    "location": { "type": "Point", "coordinates": [120.6839, 24.1469] },
    "countryCode": "TW"
  },
  {
    "name": "Teni",
    "location": { "type": "Point", "coordinates": [77.47772, 10.01115] },
    "countryCode": "IN"
  },
  {
    "name": "Xianyang",
    "location": { "type": "Point", "coordinates": [108.70261, 34.33778] },
    "countryCode": "CN"
  },
  {
    "name": "Mexicali",
    "location": { "type": "Point", "coordinates": [-115.45446, 32.62781] },
    "countryCode": "MX"
  },
  {
    "name": "Matola",
    "location": { "type": "Point", "coordinates": [32.45889, -25.96222] },
    "countryCode": "MZ"
  },
  {
    "name": "Seongnam-si",
    "location": { "type": "Point", "coordinates": [127.13778, 37.43861] },
    "countryCode": "KR"
  },
  {
    "name": "Campinas",
    "location": { "type": "Point", "coordinates": [-47.06083, -22.90556] },
    "countryCode": "BR"
  },
  {
    "name": "Sanya",
    "location": { "type": "Point", "coordinates": [109.505, 18.24306] },
    "countryCode": "CN"
  },
  {
    "name": "Kirkuk",
    "location": { "type": "Point", "coordinates": [44.39222, 35.46806] },
    "countryCode": "IQ"
  },
  {
    "name": "Jabalpur",
    "location": { "type": "Point", "coordinates": [79.95006, 23.16697] },
    "countryCode": "IN"
  },
  {
    "name": "Shaoguan",
    "location": { "type": "Point", "coordinates": [113.58333, 24.8] },
    "countryCode": "CN"
  },
  {
    "name": "Hāora",
    "location": { "type": "Point", "coordinates": [88.31857, 22.57688] },
    "countryCode": "IN"
  },
  {
    "name": "San Jose",
    "location": { "type": "Point", "coordinates": [-121.89496, 37.33939] },
    "countryCode": "US"
  },
  {
    "name": "Longyan",
    "location": { "type": "Point", "coordinates": [117.01775, 25.07485] },
    "countryCode": "CN"
  },
  {
    "name": "Dublin",
    "location": { "type": "Point", "coordinates": [-6.24889, 53.33306] },
    "countryCode": "IE"
  },
  {
    "name": "Tiruchirappalli",
    "location": { "type": "Point", "coordinates": [78.69651, 10.8155] },
    "countryCode": "IN"
  },
  {
    "name": "Yongzhou",
    "location": { "type": "Point", "coordinates": [111.61306, 26.42389] },
    "countryCode": "CN"
  },
  {
    "name": "Calgary",
    "location": { "type": "Point", "coordinates": [-114.08529, 51.05011] },
    "countryCode": "CA"
  },
  {
    "name": "Brussels",
    "location": { "type": "Point", "coordinates": [4.34878, 50.85045] },
    "countryCode": "BE"
  },
  {
    "name": "Aurangabad",
    "location": { "type": "Point", "coordinates": [75.34226, 19.87757] },
    "countryCode": "IN"
  },
  {
    "name": "Huzhou",
    "location": { "type": "Point", "coordinates": [120.0933, 30.8703] },
    "countryCode": "CN"
  },
  {
    "name": "Odesa",
    "location": { "type": "Point", "coordinates": [30.74383, 46.48572] },
    "countryCode": "UA"
  },
  {
    "name": "Volgograd",
    "location": { "type": "Point", "coordinates": [44.50183, 48.71939] },
    "countryCode": "RU"
  },
  {
    "name": "Edmonton",
    "location": { "type": "Point", "coordinates": [-113.46871, 53.55014] },
    "countryCode": "CA"
  },
  {
    "name": "Wuwei",
    "location": { "type": "Point", "coordinates": [102.63202, 37.92672] },
    "countryCode": "CN"
  },
  {
    "name": "Arequipa",
    "location": { "type": "Point", "coordinates": [-71.535, -16.39889] },
    "countryCode": "PE"
  },
  {
    "name": "Hanzhong",
    "location": { "type": "Point", "coordinates": [107.02214, 33.07507] },
    "countryCode": "CN"
  },
  {
    "name": "Hezhou",
    "location": { "type": "Point", "coordinates": [111.56675, 24.40357] },
    "countryCode": "CN"
  },
  {
    "name": "Nova Iguaçu",
    "location": { "type": "Point", "coordinates": [-43.45111, -22.75917] },
    "countryCode": "BR"
  },
  {
    "name": "Zhu Cheng City",
    "location": { "type": "Point", "coordinates": [119.40259, 35.99502] },
    "countryCode": "CN"
  },
  {
    "name": "Shivaji Nagar",
    "location": { "type": "Point", "coordinates": [73.85263, 18.53017] },
    "countryCode": "IN"
  },
  {
    "name": "Dongying",
    "location": { "type": "Point", "coordinates": [118.49165, 37.46271] },
    "countryCode": "CN"
  },
  {
    "name": "Luzhou",
    "location": { "type": "Point", "coordinates": [105.42575, 28.8903] },
    "countryCode": "CN"
  },
  {
    "name": "Solāpur",
    "location": { "type": "Point", "coordinates": [75.91044, 17.67152] },
    "countryCode": "IN"
  },
  {
    "name": "Guatemala City",
    "location": { "type": "Point", "coordinates": [-90.51327, 14.64072] },
    "countryCode": "GT"
  },
  {
    "name": "Meizhou",
    "location": { "type": "Point", "coordinates": [116.11768, 24.28859] },
    "countryCode": "CN"
  },
  {
    "name": "Yueyang",
    "location": { "type": "Point", "coordinates": [113.09481, 29.37455] },
    "countryCode": "CN"
  },
  {
    "name": "Laiwu",
    "location": { "type": "Point", "coordinates": [117.65694, 36.19278] },
    "countryCode": "CN"
  },
  {
    "name": "Da Nang",
    "location": { "type": "Point", "coordinates": [108.22083, 16.06778] },
    "countryCode": "VN"
  },
  {
    "name": "Benxi",
    "location": { "type": "Point", "coordinates": [123.765, 41.28861] },
    "countryCode": "CN"
  },
  {
    "name": "Perm",
    "location": { "type": "Point", "coordinates": [56.25017, 58.01046] },
    "countryCode": "RU"
  },
  {
    "name": "Chiba",
    "location": { "type": "Point", "coordinates": [140.11667, 35.6] },
    "countryCode": "JP"
  },
  {
    "name": "Pingdingshan",
    "location": { "type": "Point", "coordinates": [113.30119, 33.73847] },
    "countryCode": "CN"
  },
  {
    "name": "Srinagar",
    "location": { "type": "Point", "coordinates": [74.80555, 34.08565] },
    "countryCode": "IN"
  },
  {
    "name": "Zaria",
    "location": { "type": "Point", "coordinates": [7.7227, 11.11128] },
    "countryCode": "NG"
  },
  {
    "name": "Managua",
    "location": { "type": "Point", "coordinates": [-86.2504, 12.13282] },
    "countryCode": "NI"
  },
  {
    "name": "Bengbu",
    "location": { "type": "Point", "coordinates": [117.36083, 32.94083] },
    "countryCode": "CN"
  },
  {
    "name": "Jerusalem",
    "location": { "type": "Point", "coordinates": [35.21633, 31.76904] },
    "countryCode": "IL"
  },
  {
    "name": "Dnipro",
    "location": { "type": "Point", "coordinates": [35.04066, 48.46664] },
    "countryCode": "UA"
  },
  {
    "name": "Port Elizabeth",
    "location": { "type": "Point", "coordinates": [25.61494, -33.96109] },
    "countryCode": "ZA"
  },
  {
    "name": "Fès",
    "location": { "type": "Point", "coordinates": [-5.00028, 34.03313] },
    "countryCode": "MA"
  },
  {
    "name": "Cebu City",
    "location": { "type": "Point", "coordinates": [123.89071, 10.31672] },
    "countryCode": "PH"
  },
  {
    "name": "Köln",
    "location": { "type": "Point", "coordinates": [6.95, 50.93333] },
    "countryCode": "DE"
  },
  {
    "name": "Tiruppur",
    "location": { "type": "Point", "coordinates": [77.35456, 11.11541] },
    "countryCode": "IN"
  },
  {
    "name": "Ulsan",
    "location": { "type": "Point", "coordinates": [129.31667, 35.53722] },
    "countryCode": "KR"
  },
  {
    "name": "Chandīgarh",
    "location": { "type": "Point", "coordinates": [76.7884, 30.73629] },
    "countryCode": "IN"
  },
  {
    "name": "Xiangtan",
    "location": { "type": "Point", "coordinates": [112.9, 27.85] },
    "countryCode": "CN"
  },
  {
    "name": "Linfen",
    "location": { "type": "Point", "coordinates": [111.51889, 36.08889] },
    "countryCode": "CN"
  },
  {
    "name": "Victoria",
    "location": { "type": "Point", "coordinates": [114.14417, 22.2875] },
    "countryCode": "HK"
  },
  {
    "name": "Maceió",
    "location": { "type": "Point", "coordinates": [-35.73528, -9.66583] },
    "countryCode": "BR"
  },
  {
    "name": "Zhenjiang",
    "location": { "type": "Point", "coordinates": [119.45508, 32.21086] },
    "countryCode": "CN"
  },
  {
    "name": "Ciudad Guayana",
    "location": { "type": "Point", "coordinates": [-62.64102, 8.35122] },
    "countryCode": "VE"
  },
  {
    "name": "Jacksonville",
    "location": { "type": "Point", "coordinates": [-81.65565, 30.33218] },
    "countryCode": "US"
  },
  {
    "name": "Rosario",
    "location": { "type": "Point", "coordinates": [-60.63932, -32.94682] },
    "countryCode": "AR"
  },
  {
    "name": "Sulţānah",
    "location": { "type": "Point", "coordinates": [39.58572, 24.49258] },
    "countryCode": "SA"
  },
  {
    "name": "Kitakyushu",
    "location": { "type": "Point", "coordinates": [130.85034, 33.85181] },
    "countryCode": "JP"
  },
  {
    "name": "Monrovia",
    "location": { "type": "Point", "coordinates": [-10.7969, 6.30054] },
    "countryCode": "LR"
  },
  {
    "name": "Kingston",
    "location": { "type": "Point", "coordinates": [-76.79358, 17.99702] },
    "countryCode": "JM"
  },
  {
    "name": "Baoshan",
    "location": { "type": "Point", "coordinates": [99.16366, 25.11626] },
    "countryCode": "CN"
  },
  {
    "name": "Austin",
    "location": { "type": "Point", "coordinates": [-97.74306, 30.26715] },
    "countryCode": "US"
  },
  {
    "name": "Rui’an",
    "location": { "type": "Point", "coordinates": [120.65859, 27.77605] },
    "countryCode": "CN"
  },
  {
    "name": "Chihuahua",
    "location": { "type": "Point", "coordinates": [-106.08889, 28.63528] },
    "countryCode": "MX"
  },
  {
    "name": "Nay Pyi Taw",
    "location": { "type": "Point", "coordinates": [96.12972, 19.745] },
    "countryCode": "MM"
  },
  {
    "name": "Jodhpur",
    "location": { "type": "Point", "coordinates": [73.00594, 26.26841] },
    "countryCode": "IN"
  },
  {
    "name": "Trujillo",
    "location": { "type": "Point", "coordinates": [-79.02998, -8.11599] },
    "countryCode": "PE"
  },
  {
    "name": "Fort Worth",
    "location": { "type": "Point", "coordinates": [-97.32085, 32.72541] },
    "countryCode": "US"
  },
  {
    "name": "Salem",
    "location": { "type": "Point", "coordinates": [78.15538, 11.65376] },
    "countryCode": "IN"
  },
  {
    "name": "São Luís",
    "location": { "type": "Point", "coordinates": [-44.30278, -2.52972] },
    "countryCode": "BR"
  },
  {
    "name": "Cartagena",
    "location": { "type": "Point", "coordinates": [-75.51444, 10.39972] },
    "countryCode": "CO"
  },
  {
    "name": "Laibin",
    "location": { "type": "Point", "coordinates": [109.22222, 23.74743] },
    "countryCode": "CN"
  },
  {
    "name": "Naples",
    "location": { "type": "Point", "coordinates": [14.26811, 40.85216] },
    "countryCode": "IT"
  },
  {
    "name": "Padang",
    "location": { "type": "Point", "coordinates": [100.35427, -0.94924] },
    "countryCode": "ID"
  },
  {
    "name": "Xiaogan",
    "location": { "type": "Point", "coordinates": [113.92221, 30.92689] },
    "countryCode": "CN"
  },
  {
    "name": "Columbus",
    "location": { "type": "Point", "coordinates": [-82.99879, 39.96118] },
    "countryCode": "US"
  },
  {
    "name": "Ziyang",
    "location": { "type": "Point", "coordinates": [104.64811, 30.12108] },
    "countryCode": "CN"
  },
  {
    "name": "Sale",
    "location": { "type": "Point", "coordinates": [-6.79846, 34.0531] },
    "countryCode": "MA"
  },
  {
    "name": "Quzhou",
    "location": { "type": "Point", "coordinates": [118.86861, 28.95944] },
    "countryCode": "CN"
  },
  {
    "name": "Petaling Jaya",
    "location": { "type": "Point", "coordinates": [101.60671, 3.10726] },
    "countryCode": "MY"
  },
  {
    "name": "Donetsk",
    "location": { "type": "Point", "coordinates": [37.80224, 48.023] },
    "countryCode": "UA"
  },
  {
    "name": "Abū Ghurayb",
    "location": { "type": "Point", "coordinates": [44.18477, 33.30563] },
    "countryCode": "IQ"
  },
  {
    "name": "Qom",
    "location": { "type": "Point", "coordinates": [50.8764, 34.6401] },
    "countryCode": "IR"
  },
  {
    "name": "Bishkek",
    "location": { "type": "Point", "coordinates": [74.59, 42.87] },
    "countryCode": "KG"
  },
  {
    "name": "Zaozhuang",
    "location": { "type": "Point", "coordinates": [117.55417, 34.86472] },
    "countryCode": "CN"
  },
  {
    "name": "Krasnodar",
    "location": { "type": "Point", "coordinates": [38.97603, 45.04484] },
    "countryCode": "RU"
  },
  {
    "name": "Guwahati",
    "location": { "type": "Point", "coordinates": [91.7458, 26.1844] },
    "countryCode": "IN"
  },
  {
    "name": "Aba",
    "location": { "type": "Point", "coordinates": [7.36667, 5.10658] },
    "countryCode": "NG"
  },
  {
    "name": "Pingxiang",
    "location": { "type": "Point", "coordinates": [113.85353, 27.61672] },
    "countryCode": "CN"
  },
  {
    "name": "Indianapolis",
    "location": { "type": "Point", "coordinates": [-86.15804, 39.76838] },
    "countryCode": "US"
  },
  {
    "name": "Zhoushan",
    "location": { "type": "Point", "coordinates": [122.20488, 29.98869] },
    "countryCode": "CN"
  },
  {
    "name": "Gwalior",
    "location": { "type": "Point", "coordinates": [78.17337, 26.22983] },
    "countryCode": "IN"
  },
  {
    "name": "Qiqihar",
    "location": { "type": "Point", "coordinates": [123.96154, 47.33922] },
    "countryCode": "CN"
  },
  {
    "name": "Klang",
    "location": { "type": "Point", "coordinates": [101.44333, 3.03667] },
    "countryCode": "MY"
  },
  {
    "name": "As Sulaymānīyah",
    "location": { "type": "Point", "coordinates": [45.4329, 35.56496] },
    "countryCode": "IQ"
  },
  {
    "name": "Konya",
    "location": { "type": "Point", "coordinates": [32.48464, 37.87135] },
    "countryCode": "TR"
  },
  {
    "name": "Puning",
    "location": { "type": "Point", "coordinates": [116.16869, 23.31072] },
    "countryCode": "CN"
  },
  {
    "name": "Mbuji-Mayi",
    "location": { "type": "Point", "coordinates": [23.58979, -6.13603] },
    "countryCode": "CD"
  },
  {
    "name": "Vijayawada",
    "location": { "type": "Point", "coordinates": [80.6466, 16.50745] },
    "countryCode": "IN"
  },
  {
    "name": "Charlotte",
    "location": { "type": "Point", "coordinates": [-80.84313, 35.22709] },
    "countryCode": "US"
  },
  {
    "name": "Pikine",
    "location": { "type": "Point", "coordinates": [-17.39071, 14.76457] },
    "countryCode": "SN"
  },
  {
    "name": "Bhiwandi",
    "location": { "type": "Point", "coordinates": [73.05881, 19.30023] },
    "countryCode": "IN"
  },
  {
    "name": "Marseille",
    "location": { "type": "Point", "coordinates": [5.38107, 43.29695] },
    "countryCode": "FR"
  },
  {
    "name": "Ankang",
    "location": { "type": "Point", "coordinates": [109.01722, 32.68] },
    "countryCode": "CN"
  },
  {
    "name": "Mysore",
    "location": { "type": "Point", "coordinates": [76.63925, 12.29791] },
    "countryCode": "IN"
  },
  {
    "name": "Langfang",
    "location": { "type": "Point", "coordinates": [116.69472, 39.50972] },
    "countryCode": "CN"
  },
  {
    "name": "Jiaozuo",
    "location": { "type": "Point", "coordinates": [113.23306, 35.23972] },
    "countryCode": "CN"
  },
  {
    "name": "San Francisco",
    "location": { "type": "Point", "coordinates": [-122.41942, 37.77493] },
    "countryCode": "US"
  },
  {
    "name": "Liverpool",
    "location": { "type": "Point", "coordinates": [-2.97794, 53.41058] },
    "countryCode": "GB"
  },
  {
    "name": "Rohini",
    "location": { "type": "Point", "coordinates": [77.06778, 28.74322] },
    "countryCode": "IN"
  },
  {
    "name": "Wanxian",
    "location": { "type": "Point", "coordinates": [108.37407, 30.81601] },
    "countryCode": "CN"
  },
  {
    "name": "Guang’an",
    "location": { "type": "Point", "coordinates": [106.63696, 30.47413] },
    "countryCode": "CN"
  },
  {
    "name": "Johor Bahru",
    "location": { "type": "Point", "coordinates": [103.7578, 1.4655] },
    "countryCode": "MY"
  },
  {
    "name": "Kanayannur",
    "location": { "type": "Point", "coordinates": [76.26667, 9.96667] },
    "countryCode": "IN"
  },
  {
    "name": "Tegucigalpa",
    "location": { "type": "Point", "coordinates": [-87.20681, 14.0818] },
    "countryCode": "HN"
  },
  {
    "name": "Bucheon-si",
    "location": { "type": "Point", "coordinates": [126.78306, 37.49889] },
    "countryCode": "KR"
  },
  {
    "name": "Turin",
    "location": { "type": "Point", "coordinates": [7.68682, 45.07049] },
    "countryCode": "IT"
  },
  {
    "name": "Cheongju-si",
    "location": { "type": "Point", "coordinates": [127.48972, 36.63722] },
    "countryCode": "KR"
  },
  {
    "name": "Saratov",
    "location": { "type": "Point", "coordinates": [46.00861, 51.54056] },
    "countryCode": "RU"
  },
  {
    "name": "Ulan Bator",
    "location": { "type": "Point", "coordinates": [106.88324, 47.90771] },
    "countryCode": "MN"
  },
  {
    "name": "Weihai",
    "location": { "type": "Point", "coordinates": [122.11356, 37.50914] },
    "countryCode": "CN"
  },
  {
    "name": "Takeo",
    "location": { "type": "Point", "coordinates": [104.78498, 10.99081] },
    "countryCode": "KH"
  },
  {
    "name": "Malang",
    "location": { "type": "Point", "coordinates": [112.6304, -7.9797] },
    "countryCode": "ID"
  },
  {
    "name": "Haiphong",
    "location": { "type": "Point", "coordinates": [106.68345, 20.86481] },
    "countryCode": "VN"
  },
  {
    "name": "Cochabamba",
    "location": { "type": "Point", "coordinates": [-66.1568, -17.3895] },
    "countryCode": "BO"
  },
  {
    "name": "Ahvaz",
    "location": { "type": "Point", "coordinates": [48.6842, 31.31901] },
    "countryCode": "IR"
  },
  {
    "name": "Hubli",
    "location": { "type": "Point", "coordinates": [75.13378, 15.34776] },
    "countryCode": "IN"
  },
  {
    "name": "Zhabei",
    "location": { "type": "Point", "coordinates": [121.45972, 31.25861] },
    "countryCode": "CN"
  },
  {
    "name": "Ipoh",
    "location": { "type": "Point", "coordinates": [101.0829, 4.5841] },
    "countryCode": "MY"
  },
  {
    "name": "Xinyu",
    "location": { "type": "Point", "coordinates": [114.93335, 27.80429] },
    "countryCode": "CN"
  },
  {
    "name": "Marrakesh",
    "location": { "type": "Point", "coordinates": [-7.99994, 31.63416] },
    "countryCode": "MA"
  },
  {
    "name": "Yibin",
    "location": { "type": "Point", "coordinates": [104.63994, 28.7593] },
    "countryCode": "CN"
  },
  {
    "name": "Kampung Baru Subang",
    "location": { "type": "Point", "coordinates": [101.53333, 3.15] },
    "countryCode": "MY"
  },
  {
    "name": "Bouaké",
    "location": { "type": "Point", "coordinates": [-5.03031, 7.69385] },
    "countryCode": "CI"
  },
  {
    "name": "Samarinda",
    "location": { "type": "Point", "coordinates": [117.14583, -0.49167] },
    "countryCode": "ID"
  },
  {
    "name": "Taicang",
    "location": { "type": "Point", "coordinates": [121.09389, 31.44778] },
    "countryCode": "CN"
  },
  {
    "name": "Biên Hòa",
    "location": { "type": "Point", "coordinates": [106.82432, 10.94469] },
    "countryCode": "VN"
  },
  {
    "name": "Chenzhou",
    "location": { "type": "Point", "coordinates": [113.03333, 25.8] },
    "countryCode": "CN"
  },
  {
    "name": "Duque de Caxias",
    "location": { "type": "Point", "coordinates": [-43.31167, -22.78556] },
    "countryCode": "BR"
  },
  {
    "name": "Jos",
    "location": { "type": "Point", "coordinates": [8.89212, 9.92849] },
    "countryCode": "NG"
  },
  {
    "name": "Ilorin",
    "location": { "type": "Point", "coordinates": [4.54214, 8.49664] },
    "countryCode": "NG"
  },
  {
    "name": "Hermosillo",
    "location": { "type": "Point", "coordinates": [-110.97732, 29.1026] },
    "countryCode": "MX"
  },
  {
    "name": "Ottawa",
    "location": { "type": "Point", "coordinates": [-75.69812, 45.41117] },
    "countryCode": "CA"
  },
  {
    "name": "Cần Thơ",
    "location": { "type": "Point", "coordinates": [105.78825, 10.03711] },
    "countryCode": "VN"
  },
  {
    "name": "Culiacán",
    "location": { "type": "Point", "coordinates": [-107.38782, 24.79032] },
    "countryCode": "MX"
  },
  {
    "name": "Benghazi",
    "location": { "type": "Point", "coordinates": [20.06859, 32.11486] },
    "countryCode": "LY"
  },
  {
    "name": "Anqing",
    "location": { "type": "Point", "coordinates": [117.04723, 30.51365] },
    "countryCode": "CN"
  },
  {
    "name": "Freetown",
    "location": { "type": "Point", "coordinates": [-13.2356, 8.48714] },
    "countryCode": "SL"
  },
  {
    "name": "San Pedro Sula",
    "location": { "type": "Point", "coordinates": [-88.025, 15.50417] },
    "countryCode": "HN"
  },
  {
    "name": "Narela",
    "location": { "type": "Point", "coordinates": [77.09288, 28.85267] },
    "countryCode": "IN"
  },
  {
    "name": "Xingtai",
    "location": { "type": "Point", "coordinates": [114.49417, 37.06306] },
    "countryCode": "CN"
  },
  {
    "name": "Niigata",
    "location": { "type": "Point", "coordinates": [139.00589, 37.88637] },
    "countryCode": "JP"
  },
  {
    "name": "Muscat",
    "location": { "type": "Point", "coordinates": [58.40778, 23.58413] },
    "countryCode": "OM"
  },
  {
    "name": "Zarqa",
    "location": { "type": "Point", "coordinates": [36.08796, 32.07275] },
    "countryCode": "JO"
  },
  {
    "name": "Naucalpan de Juárez",
    "location": { "type": "Point", "coordinates": [-99.23963, 19.47851] },
    "countryCode": "MX"
  },
  {
    "name": "Çankaya",
    "location": { "type": "Point", "coordinates": [32.86268, 39.9179] },
    "countryCode": "TR"
  },
  {
    "name": "Hamamatsu",
    "location": { "type": "Point", "coordinates": [137.73333, 34.7] },
    "countryCode": "JP"
  },
  {
    "name": "Valencia",
    "location": { "type": "Point", "coordinates": [-0.37739, 39.46975] },
    "countryCode": "ES"
  },
  {
    "name": "Rahim Yar Khan",
    "location": { "type": "Point", "coordinates": [70.30345, 28.41987] },
    "countryCode": "PK"
  },
  {
    "name": "Pasragad Branch",
    "location": { "type": "Point", "coordinates": [48.47168, 34.77772] },
    "countryCode": "IR"
  },
  {
    "name": "Zhaotong",
    "location": { "type": "Point", "coordinates": [103.71667, 27.31667] },
    "countryCode": "CN"
  },
  {
    "name": "Panzhihua",
    "location": { "type": "Point", "coordinates": [101.71276, 26.58509] },
    "countryCode": "CN"
  },
  {
    "name": "Boumerdas",
    "location": { "type": "Point", "coordinates": [3.47717, 36.76639] },
    "countryCode": "DZ"
  },
  {
    "name": "Jalandhar",
    "location": { "type": "Point", "coordinates": [75.57917, 31.32556] },
    "countryCode": "IN"
  },
  {
    "name": "Thiruvananthapuram",
    "location": { "type": "Point", "coordinates": [76.94924, 8.4855] },
    "countryCode": "IN"
  },
  {
    "name": "Chuzhou",
    "location": { "type": "Point", "coordinates": [118.29778, 32.32194] },
    "countryCode": "CN"
  },
  {
    "name": "Sakai",
    "location": { "type": "Point", "coordinates": [135.46667, 34.58333] },
    "countryCode": "JP"
  },
  {
    "name": "Port Said",
    "location": { "type": "Point", "coordinates": [32.3019, 31.26531] },
    "countryCode": "EG"
  },
  {
    "name": "Cotonou",
    "location": { "type": "Point", "coordinates": [2.41833, 6.36536] },
    "countryCode": "BJ"
  },
  {
    "name": "Cúcuta",
    "location": { "type": "Point", "coordinates": [-72.50782, 7.89391] },
    "countryCode": "CO"
  },
  {
    "name": "Homs",
    "location": { "type": "Point", "coordinates": [36.72339, 34.72682] },
    "countryCode": "SY"
  },
  {
    "name": "Xuanzhou",
    "location": { "type": "Point", "coordinates": [118.75528, 30.9525] },
    "countryCode": "CN"
  },
  {
    "name": "Niamey",
    "location": { "type": "Point", "coordinates": [2.1098, 13.51366] },
    "countryCode": "NE"
  },
  {
    "name": "Tainan",
    "location": { "type": "Point", "coordinates": [120.21333, 22.99083] },
    "countryCode": "TW"
  },
  {
    "name": "Shangyu",
    "location": { "type": "Point", "coordinates": [120.87111, 30.01556] },
    "countryCode": "CN"
  },
  {
    "name": "Łódź",
    "location": { "type": "Point", "coordinates": [19.47395, 51.77058] },
    "countryCode": "PL"
  },
  {
    "name": "Tyumen",
    "location": { "type": "Point", "coordinates": [65.52722, 57.15222] },
    "countryCode": "RU"
  },
  {
    "name": "Kahrīz",
    "location": { "type": "Point", "coordinates": [47.0553, 34.3838] },
    "countryCode": "IR"
  },
  {
    "name": "Anshun",
    "location": { "type": "Point", "coordinates": [105.93333, 26.25] },
    "countryCode": "CN"
  },
  {
    "name": "Rājshāhi",
    "location": { "type": "Point", "coordinates": [88.60114, 24.374] },
    "countryCode": "BD"
  },
  {
    "name": "Kota",
    "location": { "type": "Point", "coordinates": [75.83907, 25.18254] },
    "countryCode": "IN"
  },
  {
    "name": "Natal",
    "location": { "type": "Point", "coordinates": [-35.20944, -5.795] },
    "countryCode": "BR"
  },
  {
    "name": "Bhubaneshwar",
    "location": { "type": "Point", "coordinates": [85.83385, 20.27241] },
    "countryCode": "IN"
  },
  {
    "name": "Wuzhou",
    "location": { "type": "Point", "coordinates": [111.28848, 23.48054] },
    "countryCode": "CN"
  },
  {
    "name": "Qinhuangdao",
    "location": { "type": "Point", "coordinates": [119.58833, 39.93167] },
    "countryCode": "CN"
  },
  {
    "name": "Maiduguri",
    "location": { "type": "Point", "coordinates": [13.15712, 11.84692] },
    "countryCode": "NG"
  },
  {
    "name": "Antalya",
    "location": { "type": "Point", "coordinates": [30.69556, 36.90812] },
    "countryCode": "TR"
  },
  {
    "name": "Kraków",
    "location": { "type": "Point", "coordinates": [19.93658, 50.06143] },
    "countryCode": "PL"
  },
  {
    "name": "Alīgarh",
    "location": { "type": "Point", "coordinates": [78.07464, 27.88145] },
    "countryCode": "IN"
  },
  {
    "name": "Shaoyang",
    "location": { "type": "Point", "coordinates": [111.46214, 27.23818] },
    "countryCode": "CN"
  },
  {
    "name": "Pietermaritzburg",
    "location": { "type": "Point", "coordinates": [30.39278, -29.61679] },
    "countryCode": "ZA"
  },
  {
    "name": "Lomé",
    "location": { "type": "Point", "coordinates": [1.22154, 6.12874] },
    "countryCode": "TG"
  },
  {
    "name": "Winnipeg",
    "location": { "type": "Point", "coordinates": [-97.14704, 49.8844] },
    "countryCode": "CA"
  },
  {
    "name": "Bağcılar",
    "location": { "type": "Point", "coordinates": [28.85671, 41.03903] },
    "countryCode": "TR"
  },
  {
    "name": "Bareilly",
    "location": { "type": "Point", "coordinates": [79.43167, 28.36678] },
    "countryCode": "IN"
  },
  {
    "name": "Buraydah",
    "location": { "type": "Point", "coordinates": [43.97497, 26.32599] },
    "countryCode": "SA"
  },
  {
    "name": "Teresina",
    "location": { "type": "Point", "coordinates": [-42.80194, -5.08917] },
    "countryCode": "BR"
  },
  {
    "name": "São Bernardo do Campo",
    "location": { "type": "Point", "coordinates": [-46.565, -23.69389] },
    "countryCode": "BR"
  },
  {
    "name": "Hegang",
    "location": { "type": "Point", "coordinates": [130.29033, 47.34727] },
    "countryCode": "CN"
  },
  {
    "name": "Morelia",
    "location": { "type": "Point", "coordinates": [-101.18443, 19.70078] },
    "countryCode": "MX"
  },
  {
    "name": "Nampula",
    "location": { "type": "Point", "coordinates": [39.2666, -15.11646] },
    "countryCode": "MZ"
  },
  {
    "name": "Riga",
    "location": { "type": "Point", "coordinates": [24.10589, 56.946] },
    "countryCode": "LV"
  },
  {
    "name": "Amsterdam",
    "location": { "type": "Point", "coordinates": [4.88969, 52.37403] },
    "countryCode": "NL"
  },
  {
    "name": "Ma’anshan",
    "location": { "type": "Point", "coordinates": [118.51008, 31.68579] },
    "countryCode": "CN"
  },
  {
    "name": "Shah Alam",
    "location": { "type": "Point", "coordinates": [101.53281, 3.08507] },
    "countryCode": "MY"
  },
  {
    "name": "Kumamoto",
    "location": { "type": "Point", "coordinates": [130.69181, 32.80589] },
    "countryCode": "JP"
  },
  {
    "name": "Seattle",
    "location": { "type": "Point", "coordinates": [-122.33207, 47.60621] },
    "countryCode": "US"
  },
  {
    "name": "Oyo",
    "location": { "type": "Point", "coordinates": [3.93235, 7.85367] },
    "countryCode": "NG"
  },
  {
    "name": "Torreón",
    "location": { "type": "Point", "coordinates": [-103.41898, 25.54389] },
    "countryCode": "MX"
  },
  {
    "name": "Deyang",
    "location": { "type": "Point", "coordinates": [104.38198, 31.13019] },
    "countryCode": "CN"
  },
  {
    "name": "Quetta",
    "location": { "type": "Point", "coordinates": [67.00141, 30.18414] },
    "countryCode": "PK"
  },
  {
    "name": "Yangquan",
    "location": { "type": "Point", "coordinates": [113.56333, 37.8575] },
    "countryCode": "CN"
  },
  {
    "name": "Campo Grande",
    "location": { "type": "Point", "coordinates": [-54.64639, -20.44278] },
    "countryCode": "BR"
  },
  {
    "name": "Ashgabat",
    "location": { "type": "Point", "coordinates": [58.38333, 37.95] },
    "countryCode": "TM"
  },
  {
    "name": "Álvaro Obregón",
    "location": { "type": "Point", "coordinates": [-99.20329, 19.35867] },
    "countryCode": "MX"
  },
  {
    "name": "Denpasar",
    "location": { "type": "Point", "coordinates": [115.21667, -8.65] },
    "countryCode": "ID"
  },
  {
    "name": "Muzaffarābād",
    "location": { "type": "Point", "coordinates": [73.47082, 34.37002] },
    "countryCode": "PK"
  },
  {
    "name": "Wanzhou",
    "location": { "type": "Point", "coordinates": [108.39586, 30.76451] },
    "countryCode": "CN"
  },
  {
    "name": "San Luis Potosí",
    "location": { "type": "Point", "coordinates": [-100.97916, 22.14982] },
    "countryCode": "MX"
  },
  {
    "name": "Aguascalientes",
    "location": { "type": "Point", "coordinates": [-102.28259, 21.88234] },
    "countryCode": "MX"
  },
  {
    "name": "Zhumadian",
    "location": { "type": "Point", "coordinates": [114.02944, 32.97944] },
    "countryCode": "CN"
  },
  {
    "name": "Morādābād",
    "location": { "type": "Point", "coordinates": [78.77684, 28.83893] },
    "countryCode": "IN"
  },
  {
    "name": "N'Djamena",
    "location": { "type": "Point", "coordinates": [15.0444, 12.10672] },
    "countryCode": "TD"
  },
  {
    "name": "Okayama",
    "location": { "type": "Point", "coordinates": [133.93333, 34.65] },
    "countryCode": "JP"
  },
  {
    "name": "Lviv",
    "location": { "type": "Point", "coordinates": [24.02324, 49.83826] },
    "countryCode": "UA"
  },
  {
    "name": "Ansan-si",
    "location": { "type": "Point", "coordinates": [126.82194, 37.32361] },
    "countryCode": "KR"
  },
  {
    "name": "Denver",
    "location": { "type": "Point", "coordinates": [-104.9847, 39.73915] },
    "countryCode": "US"
  },
  {
    "name": "Zaporizhzhya",
    "location": { "type": "Point", "coordinates": [35.11714, 47.85167] },
    "countryCode": "UA"
  },
  {
    "name": "Saltillo",
    "location": { "type": "Point", "coordinates": [-101.0053, 25.42321] },
    "countryCode": "MX"
  },
  {
    "name": "Subang Jaya",
    "location": { "type": "Point", "coordinates": [101.58062, 3.04384] },
    "countryCode": "MY"
  },
  {
    "name": "Tolyatti",
    "location": { "type": "Point", "coordinates": [49.3461, 53.5303] },
    "countryCode": "RU"
  },
  {
    "name": "Jaboatão",
    "location": { "type": "Point", "coordinates": [-35.00139, -8.18028] },
    "countryCode": "BR"
  },
  {
    "name": "Santo Domingo Oeste",
    "location": { "type": "Point", "coordinates": [-70, 18.5] },
    "countryCode": "DO"
  },
  {
    "name": "Santo Domingo Este",
    "location": { "type": "Point", "coordinates": [-69.85707, 18.48847] },
    "countryCode": "DO"
  },
  {
    "name": "Battagram",
    "location": { "type": "Point", "coordinates": [73.02329, 34.67719] },
    "countryCode": "PK"
  },
  {
    "name": "Suez",
    "location": { "type": "Point", "coordinates": [32.52627, 29.97371] },
    "countryCode": "EG"
  },
  {
    "name": "Changzhi",
    "location": { "type": "Point", "coordinates": [111.73861, 35.20889] },
    "countryCode": "CN"
  },
  {
    "name": "Bulawayo",
    "location": { "type": "Point", "coordinates": [28.58333, -20.15] },
    "countryCode": "ZW"
  },
  {
    "name": "Zagreb",
    "location": { "type": "Point", "coordinates": [15.97798, 45.81444] },
    "countryCode": "HR"
  },
  {
    "name": "Agadir",
    "location": { "type": "Point", "coordinates": [-9.59815, 30.42018] },
    "countryCode": "MA"
  },
  {
    "name": "Sarajevo",
    "location": { "type": "Point", "coordinates": [18.35644, 43.84864] },
    "countryCode": "BA"
  },
  {
    "name": "Balikpapan",
    "location": { "type": "Point", "coordinates": [116.82887, -1.26753] },
    "countryCode": "ID"
  },
  {
    "name": "Bauchi",
    "location": { "type": "Point", "coordinates": [9.84388, 10.31032] },
    "countryCode": "NG"
  },
  {
    "name": "Tunis",
    "location": { "type": "Point", "coordinates": [10.16579, 36.81897] },
    "countryCode": "TN"
  },
  {
    "name": "Zhangjiakou",
    "location": { "type": "Point", "coordinates": [114.87139, 40.78341] },
    "countryCode": "CN"
  },
  {
    "name": "Serang",
    "location": { "type": "Point", "coordinates": [106.15417, -6.11528] },
    "countryCode": "ID"
  },
  {
    "name": "Shizuoka",
    "location": { "type": "Point", "coordinates": [138.38333, 34.98333] },
    "countryCode": "JP"
  },
  {
    "name": "Paranaque City",
    "location": { "type": "Point", "coordinates": [121.01749, 14.48156] },
    "countryCode": "PH"
  },
  {
    "name": "Washington",
    "location": { "type": "Point", "coordinates": [-77.03637, 38.89511] },
    "countryCode": "US"
  },
  {
    "name": "Nashville",
    "location": { "type": "Point", "coordinates": [-86.78444, 36.16589] },
    "countryCode": "US"
  },
  {
    "name": "Fuxin",
    "location": { "type": "Point", "coordinates": [121.65889, 42.01556] },
    "countryCode": "CN"
  },
  {
    "name": "Enugu",
    "location": { "type": "Point", "coordinates": [7.49883, 6.44132] },
    "countryCode": "NG"
  },
  {
    "name": "Ta’if",
    "location": { "type": "Point", "coordinates": [40.41583, 21.27028] },
    "countryCode": "SA"
  },
  {
    "name": "Tangier",
    "location": { "type": "Point", "coordinates": [-5.79975, 35.76727] },
    "countryCode": "MA"
  },
  {
    "name": "Huangshi",
    "location": { "type": "Point", "coordinates": [115.04814, 30.24706] },
    "countryCode": "CN"
  },
  {
    "name": "Liaoyang",
    "location": { "type": "Point", "coordinates": [123.17306, 41.27194] },
    "countryCode": "CN"
  },
  {
    "name": "Baise",
    "location": { "type": "Point", "coordinates": [106.62684, 23.89013] },
    "countryCode": "CN"
  },
  {
    "name": "Situbondo",
    "location": { "type": "Point", "coordinates": [114.00976, -7.70623] },
    "countryCode": "ID"
  },
  {
    "name": "Sheffield",
    "location": { "type": "Point", "coordinates": [-1.4659, 53.38297] },
    "countryCode": "GB"
  },
  {
    "name": "Sevilla",
    "location": { "type": "Point", "coordinates": [-5.97317, 37.38283] },
    "countryCode": "ES"
  },
  {
    "name": "Binzhou",
    "location": { "type": "Point", "coordinates": [118.01667, 37.36667] },
    "countryCode": "CN"
  },
  {
    "name": "El Paso",
    "location": { "type": "Point", "coordinates": [-106.48693, 31.75872] },
    "countryCode": "US"
  },
  {
    "name": "Oklahoma City",
    "location": { "type": "Point", "coordinates": [-97.51643, 35.46756] },
    "countryCode": "US"
  },
  {
    "name": "Yuncheng",
    "location": { "type": "Point", "coordinates": [110.99278, 35.02306] },
    "countryCode": "CN"
  },
  {
    "name": "Raipur",
    "location": { "type": "Point", "coordinates": [81.63333, 21.23333] },
    "countryCode": "IN"
  },
  {
    "name": "General Santos",
    "location": { "type": "Point", "coordinates": [125.17167, 6.11278] },
    "countryCode": "PH"
  },
  {
    "name": "Dezhou",
    "location": { "type": "Point", "coordinates": [116.36706, 37.44661] },
    "countryCode": "CN"
  },
  {
    "name": "Dushanbe",
    "location": { "type": "Point", "coordinates": [68.77905, 38.53575] },
    "countryCode": "TJ"
  },
  {
    "name": "Osasco",
    "location": { "type": "Point", "coordinates": [-46.79167, -23.5325] },
    "countryCode": "BR"
  },
  {
    "name": "Detroit",
    "location": { "type": "Point", "coordinates": [-83.04575, 42.33143] },
    "countryCode": "US"
  },
  {
    "name": "Boston",
    "location": { "type": "Point", "coordinates": [-71.05977, 42.35843] },
    "countryCode": "US"
  },
  {
    "name": "Zaragoza",
    "location": { "type": "Point", "coordinates": [-0.87734, 41.65606] },
    "countryCode": "ES"
  },
  {
    "name": "Gorakhpur",
    "location": { "type": "Point", "coordinates": [83.36889, 26.76628] },
    "countryCode": "IN"
  },
  {
    "name": "Guadalupe",
    "location": { "type": "Point", "coordinates": [-100.25646, 25.67678] },
    "countryCode": "MX"
  },
  {
    "name": "Acapulco de Juárez",
    "location": { "type": "Point", "coordinates": [-99.90891, 16.84942] },
    "countryCode": "MX"
  },
  {
    "name": "Sanmenxia",
    "location": { "type": "Point", "coordinates": [111.18139, 34.77472] },
    "countryCode": "CN"
  },
  {
    "name": "E’zhou",
    "location": { "type": "Point", "coordinates": [114.88655, 30.39607] },
    "countryCode": "CN"
  },
  {
    "name": "Mississauga",
    "location": { "type": "Point", "coordinates": [-79.6583, 43.5789] },
    "countryCode": "CA"
  },
  {
    "name": "Madīnat an Naşr",
    "location": { "type": "Point", "coordinates": [31.3, 30.06667] },
    "countryCode": "EG"
  },
  {
    "name": "Tabuk",
    "location": { "type": "Point", "coordinates": [36.57151, 28.3998] },
    "countryCode": "SA"
  },
  {
    "name": "Cheonan",
    "location": { "type": "Point", "coordinates": [127.1522, 36.8065] },
    "countryCode": "KR"
  },
  {
    "name": "Mudanjiang",
    "location": { "type": "Point", "coordinates": [129.62594, 44.54804] },
    "countryCode": "CN"
  },
  {
    "name": "Athens",
    "location": { "type": "Point", "coordinates": [23.72784, 37.98376] },
    "countryCode": "GR"
  },
  {
    "name": "Leshan",
    "location": { "type": "Point", "coordinates": [103.76386, 29.56227] },
    "countryCode": "CN"
  },
  {
    "name": "Santo André",
    "location": { "type": "Point", "coordinates": [-46.53833, -23.66389] },
    "countryCode": "BR"
  },
  {
    "name": "Rizhao",
    "location": { "type": "Point", "coordinates": [119.52908, 35.41414] },
    "countryCode": "CN"
  },
  {
    "name": "Nouakchott",
    "location": { "type": "Point", "coordinates": [-15.9785, 18.08581] },
    "countryCode": "MR"
  },
  {
    "name": "Pointe-Noire",
    "location": { "type": "Point", "coordinates": [11.86352, -4.77609] },
    "countryCode": "CG"
  },
  {
    "name": "Helsinki",
    "location": { "type": "Point", "coordinates": [24.93545, 60.16952] },
    "countryCode": "FI"
  },
  {
    "name": "Pontianak",
    "location": { "type": "Point", "coordinates": [109.325, -0.03194] },
    "countryCode": "ID"
  },
  {
    "name": "Banjarmasin",
    "location": { "type": "Point", "coordinates": [114.59075, -3.31987] },
    "countryCode": "ID"
  },
  {
    "name": "Puducherry",
    "location": { "type": "Point", "coordinates": [79.82979, 11.93381] },
    "countryCode": "IN"
  },
  {
    "name": "Suining",
    "location": { "type": "Point", "coordinates": [105.57332, 30.50802] },
    "countryCode": "CN"
  },
  {
    "name": "Puyang",
    "location": { "type": "Point", "coordinates": [115.01721, 35.76318] },
    "countryCode": "CN"
  },
  {
    "name": "Tlalnepantla",
    "location": { "type": "Point", "coordinates": [-99.19538, 19.54005] },
    "countryCode": "MX"
  },
  {
    "name": "Portland",
    "location": { "type": "Point", "coordinates": [-122.67621, 45.52345] },
    "countryCode": "US"
  },
  {
    "name": "Jeonju",
    "location": { "type": "Point", "coordinates": [127.14889, 35.82194] },
    "countryCode": "KR"
  },
  {
    "name": "João Pessoa",
    "location": { "type": "Point", "coordinates": [-34.86306, -7.115] },
    "countryCode": "BR"
  },
  {
    "name": "Frankfurt am Main",
    "location": { "type": "Point", "coordinates": [8.68417, 50.11552] },
    "countryCode": "DE"
  },
  {
    "name": "Macau",
    "location": { "type": "Point", "coordinates": [113.54611, 22.20056] },
    "countryCode": "MO"
  },
  {
    "name": "Palermo",
    "location": { "type": "Point", "coordinates": [13.3636, 38.1166] },
    "countryCode": "IT"
  },
  {
    "name": "Izhevsk",
    "location": { "type": "Point", "coordinates": [53.20448, 56.84976] },
    "countryCode": "RU"
  },
  {
    "name": "Colombo",
    "location": { "type": "Point", "coordinates": [79.84868, 6.93548] },
    "countryCode": "LK"
  },
  {
    "name": "Lilongwe",
    "location": { "type": "Point", "coordinates": [33.78725, -13.96692] },
    "countryCode": "MW"
  },